NMEA,$GPGGA,085732.000,3206.2133,N,03512.4177,E,1,27,0.4,649.3,M,16.9,M,,*54,1735030652000
NMEA,$PSAMSA,085732.000,3206.2133,N,03512.4177,E,1,M,,*67,1735030652000
NMEA,$GPGLL,3206.2133,N,03512.4177,E,085732.000,A,A*56,1735030652000
NMEA,$GPVTG,0.0,T,,M,0.0,N,0.0,K,A*0D,1735030652000
NMEA,$GPGSV,4,1,12,05,33,266,40,07,25,072,40,13,45,322,49,14,84,019,44*71,1735030652000
NMEA,$GPGSV,4,2,12,15,13,317,40,17,29,146,44,19,11,171,28,20,24,228,32*7D,1735030652000
NMEA,$GPGSV,4,3,12,30,54,043,44*48,1735030652000
NMEA,$GPGSV,4,4,12,14,84,019,35,30,54,043,34,8*6B,1735030652000
NMEA,$GLGSV,2,1,06,65,60,315,43,66,11,331,32,72,53,167,41,74,22,036,26*61,1735030652000
NMEA,$GLGSV,2,2,06,75,59,338,47,76,28,254,40*6A,1735030652000
NMEA,$GAGSV,4,1,11,107,41,128,38,119,32,318,38,121,49,223,43,127,73,040,43*6F,1735030652000
NMEA,$GAGSV,4,2,11,129,79,343,44,130,20,042,27*6D,1735030652000
NMEA,$GAGSV,4,3,11,107,41,128,32,121,49,223,38,127,73,040,33,129,79,343,33,1*78,1735030652000
NMEA,$GAGSV,4,4,11,130,20,042,26,1*77,1735030652000
NMEA,$BDGSV,5,1,15,202,24,117,31,205,48,139,34,207,34,065,39,209,19,079,31*68,1735030652000
NMEA,$BDGSV,5,2,15,210,43,077,38,214,44,303,39,221,40,175,46,224,39,267,43*67,1735030652000
NMEA,$BDGSV,5,3,15,226,66,355,45,233,28,313,41*62,1735030652000
NMEA,$BDGSV,5,4,15,221,40,175,44,224,39,267,37,226,66,355,35,233,28,313,31,5*73,1735030652000
NMEA,$BDGSV,5,5,15,235,14,120,23,5*76,1735030652000
NMEA,$GIGSV,1,1,01,02,53,209,13*5C,1735030652000
NMEA,$GPGSA,A,3,05,07,13,14,15,17,19,,,,,,0.8,0.4,0.8*39,1735030652000
NMEA,$GNGSA,A,3,65,66,72,74,75,76,,,,,,,0.8,0.4,0.8*2E,1735030652000
NMEA,$GAGSA,A,3,107,119,121,127,129,,,,,,,,0.8,0.4,0.8*14,1735030652000
NMEA,$BDGSA,A,3,202,207,209,210,214,224,,,,,,,0.8,0.4,0.8*29,1735030652000
NMEA,$PSSGR,GSA,A,3,30,,,,,,,,,,,,0.8,0.4,0.8,1,8*42,1735030652000
NMEA,$PSSGR,GSA,A,3,130,,,,,,,,,,,,0.8,0.4,0.8,3,1*78,1735030652000
NMEA,$PSSGR,GSA,A,3,221,,,,,,,,,,,,0.8,0.4,0.8,4,5*78,1735030652000
NMEA,$GPRMC,085732.000,A,3206.2133,N,03512.4177,E,0.0,0.0,241224,,,A*62,1735030652000
NMEA,$PSAMCLK,2346,20507000,27,329610,131048,205070000*7D,1735030652000
NMEA,$GPGGA,085733.000,3206.2133,N,03512.4176,E,1,28,0.4,649.3,M,16.9,M,,*5B,1735030653000
NMEA,$PSAMSA,085733.000,3206.2133,N,03512.4176,E,1,M,,*67,1735030653000
NMEA,$GPGLL,3206.2133,N,03512.4176,E,085733.000,A,A*56,1735030653000
NMEA,$GPVTG,0.0,T,,M,0.0,N,0.0,K,A*0D,1735030653000
NMEA,$GPGSV,4,1,12,05,33,266,40,07,25,072,40,13,45,322,50,14,84,019,44*79,1735030653000
NMEA,$GPGSV,4,2,12,15,13,317,41,17,29,146,44,19,11,171,28,20,24,228,32*7C,1735030653000
NMEA,$GPGSV,4,3,12,30,54,043,44*48,1735030653000
NMEA,$GPGSV,4,4,12,14,84,019,34,30,54,043,34,8*6A,1735030653000
NMEA,$GLGSV,2,1,06,65,60,315,43,66,11,331,32,72,53,167,41,74,22,036,26*61,1735030653000
NMEA,$GLGSV,2,2,06,75,59,338,47,76,28,254,40*6A,1735030653000
NMEA,$GAGSV,4,1,12,107,41,128,38,119,32,318,38,121,49,223,43,127,73,040,44*6B,1735030653000
NMEA,$GAGSV,4,2,12,129,79,343,44,130,20,042,27*6E,1735030653000
NMEA,$GAGSV,4,3,12,107,41,128,32,121,49,223,37,127,73,040,33,129,79,343,33,1*74,1735030653000
NMEA,$GAGSV,4,4,12,130,20,042,26,1*74,1735030653000
NMEA,$BDGSV,5,1,15,202,24,117,31,205,48,139,33,207,34,065,39,209,19,079,31*6F,1735030653000
NMEA,$BDGSV,5,2,15,210,43,077,38,214,44,303,38,221,40,175,47,224,39,267,43*67,1735030653000
NMEA,$BDGSV,5,3,15,226,66,355,46,233,28,313,41*61,1735030653000
NMEA,$BDGSV,5,4,15,221,40,175,44,224,39,267,37,226,66,355,34,233,28,313,31,5*72,1735030653000
NMEA,$BDGSV,5,5,15,235,15,119,20,5*7E,1735030653000
NMEA,$GPGSA,A,3,05,07,13,15,17,19,20,,,,,,0.8,0.4,0.8*3E,1735030653000
NMEA,$GNGSA,A,3,65,66,72,74,75,76,,,,,,,0.8,0.4,0.8*2E,1735030653000
NMEA,$GAGSA,A,3,107,119,121,127,129,,,,,,,,0.8,0.4,0.8*14,1735030653000
NMEA,$BDGSA,A,3,202,207,209,210,214,224,,,,,,,0.8,0.4,0.8*29,1735030653000
NMEA,$PSSGR,GSA,A,3,14,30,,,,,,,,,,,0.8,0.4,0.8,1,8*47,1735030653000
NMEA,$PSSGR,GSA,A,3,130,,,,,,,,,,,,0.8,0.4,0.8,3,1*78,1735030653000
NMEA,$PSSGR,GSA,A,3,221,,,,,,,,,,,,0.8,0.4,0.8,4,5*78,1735030653000
NMEA,$GPRMC,085733.000,A,3206.2133,N,03512.4176,E,0.0,0.0,241224,,,A*62,1735030653000
NMEA,$PSAMCLK,2346,20507100,28,329759,133140,205071000*75,1735030653000
NMEA,$GPGGA,085734.000,3206.2133,N,03512.4176,E,1,27,0.4,649.3,M,16.9,M,,*53,1735030654000
NMEA,$PSAMSA,085734.000,3206.2133,N,03512.4176,E,1,M,,*60,1735030654000
NMEA,$GPGLL,3206.2133,N,03512.4176,E,085734.000,A,A*51,1735030654000
NMEA,$GPVTG,0.0,T,,M,0.0,N,0.0,K,A*0D,1735030654000
NMEA,$GPGSV,4,1,12,05,33,266,40,07,25,072,40,13,45,322,50,14,84,019,44*79,1735030654000
NMEA,$GPGSV,4,2,12,15,13,317,41,17,29,146,44,19,11,171,27,20,24,228,32*73,1735030654000
NMEA,$GPGSV,4,3,12,30,53,043,44*4F,1735030654000
NMEA,$GPGSV,4,4,12,14,84,019,35,30,53,043,34,8*6C,1735030654000
NMEA,$GLGSV,2,1,06,65,60,315,43,66,11,331,32,72,53,167,42,74,22,036,26*62,1735030654000
NMEA,$GLGSV,2,2,06,75,59,338,47,76,28,254,40*6A,1735030654000
NMEA,$GAGSV,4,1,12,107,41,128,37,119,32,318,38,121,49,223,43,127,73,040,44*64,1735030654000
NMEA,$GAGSV,4,2,12,129,79,343,44,130,20,042,27*6E,1735030654000
NMEA,$GAGSV,4,3,12,107,41,128,31,121,49,223,37,127,73,040,32,129,79,343,32,1*77,1735030654000
NMEA,$GAGSV,4,4,12,130,20,042,28,1*7A,1735030654000
NMEA,$BDGSV,4,1,15,202,24,117,29,205,48,139,33,207,34,065,39,209,19,079,30*66,1735030654000
NMEA,$BDGSV,4,2,15,210,43,077,38,214,44,303,38,221,40,175,47,224,39,267,43*66,1735030654000
NMEA,$BDGSV,4,3,15,226,66,355,46,233,28,313,41,235,15,119,17*6F,1735030654000
NMEA,$BDGSV,4,4,15,221,40,175,44,224,39,267,36,226,66,355,34,233,28,313,30,5*73,1735030654000
NMEA,$GPGSA,A,3,05,07,13,15,17,19,20,,,,,,0.8,0.4,0.8*3E,1735030654000
NMEA,$GNGSA,A,3,65,66,72,74,75,76,,,,,,,0.8,0.4,0.8*2E,1735030654000
NMEA,$GAGSA,A,3,119,121,127,129,,,,,,,,,0.8,0.4,0.8*22,1735030654000
NMEA,$BDGSA,A,3,207,209,210,214,224,,,,,,,,0.8,0.4,0.8*19,1735030654000
NMEA,$PSSGR,GSA,A,3,14,30,,,,,,,,,,,0.8,0.4,0.8,1,8*47,1735030654000
NMEA,$PSSGR,GSA,A,3,107,130,,,,,,,,,,,0.8,0.4,0.8,3,1*4E,1735030654000
NMEA,$PSSGR,GSA,A,3,221,,,,,,,,,,,,0.8,0.4,0.8,4,5*78,1735030654000
NMEA,$GPRMC,085734.000,A,3206.2133,N,03512.4176,E,0.0,0.0,241224,,,A*65,1735030654000
NMEA,$PSAMCLK,2346,20507200,27,329719,135233,205072000*7F,1735030654000
NMEA,$GPGGA,085735.000,3206.2133,N,03512.4176,E,1,26,0.4,649.3,M,16.9,M,,*53,1735030655000
NMEA,$PSAMSA,085735.000,3206.2133,N,03512.4176,E,1,M,,*61,1735030655000
NMEA,$GPGLL,3206.2133,N,03512.4176,E,085735.000,A,A*50,1735030655000
NMEA,$GPVTG,0.0,T,,M,0.0,N,0.0,K,A*0D,1735030655000
NMEA,$GPGSV,4,1,12,05,33,266,40,07,25,072,40,13,45,322,50,14,84,019,44*79,1735030655000
NMEA,$GPGSV,4,2,12,15,13,317,41,17,29,146,44,19,11,171,27,20,24,228,32*73,1735030655000
NMEA,$GPGSV,4,3,12,30,53,043,44*4F,1735030655000
NMEA,$GPGSV,4,4,12,14,84,019,35,30,53,043,34,8*6C,1735030655000
NMEA,$GLGSV,2,1,06,65,60,315,43,66,11,331,31,72,53,167,42,74,22,036,26*61,1735030655000
NMEA,$GLGSV,2,2,06,75,59,338,47,76,28,254,39*64,1735030655000
NMEA,$GAGSV,4,1,12,107,41,128,37,119,32,318,38,121,49,223,43,127,73,040,44*64,1735030655000
NMEA,$GAGSV,4,2,12,129,79,343,44,130,20,042,26*6F,1735030655000
NMEA,$GAGSV,4,3,12,107,41,128,31,121,49,223,39,127,73,040,31,129,79,343,33,1*7B,1735030655000
NMEA,$GAGSV,4,4,12,130,20,042,28,1*7A,1735030655000
NMEA,$BDGSV,4,1,15,202,24,117,26,205,48,139,33,207,34,065,39,209,19,079,30*69,1735030655000
NMEA,$BDGSV,4,2,15,210,43,077,38,214,44,303,37,221,40,175,47,224,39,267,43*69,1735030655000
NMEA,$BDGSV,4,3,15,226,66,355,46,233,28,313,41,235,15,119,14*6C,1735030655000
NMEA,$BDGSV,4,4,15,221,40,175,43,224,39,267,36,226,66,355,35,233,28,313,29,5*7D,1735030655000
NMEA,$GPGSA,A,3,05,07,13,15,17,19,20,,,,,,0.8,0.4,0.8*3E,1735030655000
NMEA,$GNGSA,A,3,65,66,72,75,76,,,,,,,,0.8,0.4,0.8*2D,1735030655000
NMEA,$GAGSA,A,3,119,127,129,,,,,,,,,,0.8,0.4,0.8*10,1735030655000
NMEA,$BDGSA,A,3,207,209,210,214,224,,,,,,,,0.8,0.4,0.8*19,1735030655000
NMEA,$PSSGR,GSA,A,3,14,30,,,,,,,,,,,0.8,0.4,0.8,1,8*47,1735030655000
NMEA,$PSSGR,GSA,A,3,107,121,130,,,,,,,,,,0.8,0.4,0.8,3,1*7C,1735030655000
NMEA,$PSSGR,GSA,A,3,221,,,,,,,,,,,,0.8,0.4,0.8,4,5*78,1735030655000
NMEA,$GPRMC,085735.000,A,3206.2133,N,03512.4176,E,0.0,0.0,241224,,,A*64,1735030655000
NMEA,$PSAMCLK,2346,20507300,26,330276,137329,205073000*72,1735030655000
NMEA,$GPGGA,085736.000,3206.2133,N,03512.4176,E,1,27,0.4,649.3,M,16.9,M,,*51,1735030656000
NMEA,$PSAMSA,085736.000,3206.2133,N,03512.4176,E,1,M,,*62,1735030656000
NMEA,$GPGLL,3206.2133,N,03512.4176,E,085736.000,A,A*53,1735030656000
NMEA,$GPVTG,0.0,T,,M,0.0,N,0.0,K,A*0D,1735030656000
NMEA,$GPGSV,4,1,12,05,33,266,40,07,25,072,40,13,45,322,50,14,84,019,44*79,1735030656000
NMEA,$GPGSV,4,2,12,15,13,317,42,17,29,146,44,19,11,171,27,20,24,228,32*70,1735030656000
NMEA,$GPGSV,4,3,12,30,53,043,44*4F,1735030656000
NMEA,$GPGSV,4,4,12,14,84,019,36,30,53,043,34,8*6F,1735030656000
NMEA,$GLGSV,2,1,06,65,60,315,43,66,11,331,31,72,53,167,42,74,22,036,26*61,1735030656000
NMEA,$GLGSV,2,2,06,75,59,338,46,76,28,254,39*65,1735030656000
NMEA,$GAGSV,4,1,12,107,41,128,36,119,32,318,38,121,49,223,43,127,73,040,44*65,1735030656000
NMEA,$GAGSV,4,2,12,129,79,343,45,130,20,042,26*6E,1735030656000
NMEA,$GAGSV,4,3,12,107,41,128,31,121,49,223,39,127,73,040,31,129,79,343,33,1*7B,1735030656000
NMEA,$GAGSV,4,4,12,130,20,042,28,1*7A,1735030656000
NMEA,$BDGSV,4,1,15,202,24,117,23,205,48,139,33,207,34,065,39,209,19,079,30*6C,1735030656000
NMEA,$BDGSV,4,2,15,210,43,077,38,214,44,303,37,221,40,175,48,224,39,267,43*66,1735030656000
NMEA,$BDGSV,4,3,15,226,66,355,46,233,28,313,41,235,15,119,12*6A,1735030656000
NMEA,$BDGSV,4,4,15,221,40,175,43,224,39,267,36,226,66,355,35,233,28,313,31,5*74,1735030656000
NMEA,$GPGSA,A,3,05,07,13,15,17,19,20,,,,,,0.8,0.4,0.8*3E,1735030656000
NMEA,$GNGSA,A,3,65,66,72,74,75,76,,,,,,,0.8,0.4,0.8*2E,1735030656000
NMEA,$GAGSA,A,3,119,121,127,129,,,,,,,,,0.8,0.4,0.8*22,1735030656000
NMEA,$BDGSA,A,3,207,209,210,214,221,224,,,,,,,0.8,0.4,0.8*28,1735030656000
NMEA,$PSSGR,GSA,A,3,14,30,,,,,,,,,,,0.8,0.4,0.8,1,8*47,1735030656000
NMEA,$PSSGR,GSA,A,3,107,130,,,,,,,,,,,0.8,0.4,0.8,3,1*4E,1735030656000
NMEA,$GPRMC,085736.000,A,3206.2133,N,03512.4176,E,0.0,0.0,241224,,,A*67,1735030656000
NMEA,$PSAMCLK,2346,20507400,27,330782,139427,205074000*7A,1735030656000
NMEA,$GPGGA,085737.000,3206.2133,N,03512.4176,E,1,26,0.4,649.3,M,16.9,M,,*51,1735030657000
NMEA,$PSAMSA,085737.000,3206.2133,N,03512.4176,E,1,M,,*63,1735030657000
NMEA,$GPGLL,3206.2133,N,03512.4176,E,085737.000,A,A*52,1735030657000
NMEA,$GPVTG,0.0,T,,M,0.0,N,0.0,K,A*0D,1735030657000
NMEA,$GPGSV,4,1,12,05,33,266,40,07,25,072,40,13,45,322,50,14,84,019,44*79,1735030657000
NMEA,$GPGSV,4,2,12,15,13,317,42,17,29,146,44,19,11,171,27,20,24,228,31*73,1735030657000
NMEA,$GPGSV,4,3,12,30,53,043,44*4F,1735030657000
NMEA,$GPGSV,4,4,12,14,84,019,36,30,53,043,34,8*6F,1735030657000
NMEA,$GLGSV,2,1,06,65,60,315,43,66,11,331,31,72,53,167,42,74,22,036,26*61,1735030657000
NMEA,$GLGSV,2,2,06,75,59,338,46,76,28,254,39*65,1735030657000
NMEA,$GAGSV,4,1,12,107,41,128,36,119,32,318,38,121,49,223,43,127,73,040,44*65,1735030657000
NMEA,$GAGSV,4,2,12,129,79,343,45,130,20,042,26*6E,1735030657000
NMEA,$GAGSV,4,3,12,107,41,128,31,121,49,223,39,127,73,040,30,129,79,343,33,1*7A,1735030657000
NMEA,$GAGSV,4,4,12,130,20,042,28,1*7A,1735030657000
NMEA,$BDGSV,4,1,14,202,24,117,20,205,48,139,33,207,34,065,39,209,19,079,29*66,1735030657000
NMEA,$BDGSV,4,2,14,210,43,077,38,214,44,303,37,221,40,175,48,224,39,267,43*67,1735030657000
NMEA,$BDGSV,4,3,14,226,66,355,46,233,28,313,41*61,1735030657000
NMEA,$BDGSV,4,4,14,221,40,175,43,224,39,267,36,226,66,355,35,233,28,313,30,5*74,1735030657000
NMEA,$GPGSA,A,3,05,07,13,15,17,20,,,,,,,1.0,0.4,0.8*3F,1735030657000
NMEA,$GNGSA,A,3,65,66,72,74,75,76,,,,,,,1.0,0.4,0.8*27,1735030657000
NMEA,$GAGSA,A,3,119,121,127,129,,,,,,,,,1.0,0.4,0.8*2B,1735030657000
NMEA,$BDGSA,A,3,207,209,210,214,224,,,,,,,,1.0,0.4,0.8*10,1735030657000
NMEA,$PSSGR,GSA,A,3,14,30,,,,,,,,,,,1.0,0.4,0.8,1,8*4E,1735030657000
NMEA,$PSSGR,GSA,A,3,107,130,,,,,,,,,,,1.0,0.4,0.8,3,1*47,1735030657000
NMEA,$PSSGR,GSA,A,3,221,,,,,,,,,,,,1.0,0.4,0.8,4,5*71,1735030657000
NMEA,$GPRMC,085737.000,A,3206.2133,N,03512.4176,E,0.0,0.0,241224,,,A*66,1735030657000
NMEA,$PSAMCLK,2346,20507500,26,331548,141529,205075000*7E,1735030657000
NMEA,$GPGGA,085738.000,3206.2133,N,03512.4176,E,1,26,0.4,649.3,M,16.8,M,,*5F,1735030658000
NMEA,$PSAMSA,085738.000,3206.2133,N,03512.4176,E,1,M,,*6C,1735030658000
NMEA,$GPGLL,3206.2133,N,03512.4176,E,085738.000,A,A*5D,1735030658000
NMEA,$GPVTG,0.0,T,,M,0.0,N,0.0,K,A*0D,1735030658000
NMEA,$GPGSV,4,1,12,05,33,266,40,07,25,072,40,13,45,322,49,14,84,019,44*71,1735030658000
NMEA,$GPGSV,4,2,12,15,13,317,42,17,29,146,43,20,24,228,31,30,53,043,44*7C,1735030658000
NMEA,$GPGSV,4,3,12*7D,1735030658000
NMEA,$GPGSV,4,4,12,14,84,019,36,30,53,043,34,8*6F,1735030658000
NMEA,$GLGSV,2,1,06,65,60,315,43,66,11,331,31,72,53,167,42,74,22,036,26*61,1735030658000
NMEA,$GLGSV,2,2,06,75,59,338,46,76,28,254,39*65,1735030658000
NMEA,$GAGSV,4,1,12,107,41,128,36,119,32,318,39,121,49,223,44,127,73,040,44*63,1735030658000
NMEA,$GAGSV,4,2,12,129,79,343,45,130,20,042,26*6E,1735030658000
NMEA,$GAGSV,4,3,12,107,41,128,32,121,49,223,38,127,73,040,30,129,79,343,32,1*79,1735030658000
NMEA,$GAGSV,4,4,12,130,20,042,28,1*7A,1735030658000
NMEA,$BDGSV,4,1,14,202,24,117,27,205,48,139,33,207,34,065,39,209,19,079,29*61,1735030658000
NMEA,$BDGSV,4,2,14,210,43,077,38,214,44,303,37,221,40,175,48,224,39,267,42*66,1735030658000
NMEA,$BDGSV,4,3,14,226,66,355,46,233,28,313,40*60,1735030658000
NMEA,$BDGSV,4,4,14,221,40,175,43,224,39,267,36,226,66,355,34,233,28,313,30,5*75,1735030658000
NMEA,$GPGSA,A,3,05,07,13,15,17,20,,,,,,,1.0,0.4,0.8*3F,1735030658000
NMEA,$GNGSA,A,3,65,66,72,75,76,,,,,,,,1.0,0.4,0.8*24,1735030658000
NMEA,$GAGSA,A,3,119,121,127,129,,,,,,,,,1.0,0.4,0.8*2B,1735030658000
NMEA,$BDGSA,A,3,202,207,209,210,214,224,,,,,,,1.0,0.4,0.8*20,1735030658000
NMEA,$PSSGR,GSA,A,3,14,30,,,,,,,,,,,1.0,0.4,0.8,1,8*4E,1735030658000
NMEA,$PSSGR,GSA,A,3,107,130,,,,,,,,,,,1.0,0.4,0.8,3,1*47,1735030658000
NMEA,$PSSGR,GSA,A,3,221,,,,,,,,,,,,1.0,0.4,0.8,4,5*71,1735030658000
NMEA,$GPRMC,085738.000,A,3206.2133,N,03512.4176,E,0.0,0.0,241224,,,A*69,1735030658000
NMEA,$PSAMCLK,2346,20507600,26,332063,143636,205076000*7E,1735030658000
NMEA,$GPGGA,085739.000,3206.2133,N,03512.4176,E,1,25,0.4,649.3,M,16.8,M,,*5D,1735030659000
NMEA,$PSAMSA,085739.000,3206.2133,N,03512.4176,E,1,M,,*6D,1735030659000
NMEA,$GPGLL,3206.2133,N,03512.4176,E,085739.000,A,A*5C,1735030659000
NMEA,$GPVTG,0.0,T,,M,0.0,N,0.0,K,A*0D,1735030659000
NMEA,$GPGSV,4,1,12,05,33,266,40,07,25,072,40,13,45,322,49,14,84,019,44*71,1735030659000
NMEA,$GPGSV,4,2,12,15,13,317,42,17,29,146,43,19,11,171,24,20,24,228,31*77,1735030659000
NMEA,$GPGSV,4,3,12,30,53,043,44*4F,1735030659000
NMEA,$GPGSV,4,4,12,14,84,019,36,30,53,043,33,8*68,1735030659000
NMEA,$GLGSV,2,1,06,65,60,315,43,66,11,331,31,72,53,167,42,74,22,036,26*61,1735030659000
NMEA,$GLGSV,2,2,06,75,59,338,46,76,28,254,39*65,1735030659000
NMEA,$GAGSV,4,1,12,107,41,128,36,119,32,318,39,121,49,223,44,127,73,040,44*63,1735030659000
NMEA,$GAGSV,4,2,12,129,79,343,45,130,20,042,26*6E,1735030659000
NMEA,$GAGSV,4,3,12,107,41,128,32,121,49,223,39,127,73,040,30,129,79,343,32,1*78,1735030659000
NMEA,$GAGSV,4,4,12,130,20,042,28,1*7A,1735030659000
NMEA,$BDGSV,4,1,13,202,24,117,28,205,48,139,33,209,19,079,29,210,43,077,36*63,1735030659000
NMEA,$BDGSV,4,2,13,214,44,303,37,221,40,175,48,224,39,267,42,226,66,355,46*69,1735030659000
NMEA,$BDGSV,4,3,13,233,28,313,40*60,1735030659000
NMEA,$BDGSV,4,4,13,221,40,175,43,224,39,267,36,226,66,355,34,233,28,313,29,5*7A,1735030659000
NMEA,$GPGSA,A,3,05,07,13,15,17,20,30,,,,,,1.0,0.4,0.8*3C,1735030659000
NMEA,$GNGSA,A,3,65,66,72,74,75,76,,,,,,,1.0,0.4,0.8*27,1735030659000
NMEA,$GAGSA,A,3,119,127,129,,,,,,,,,,1.0,0.4,0.8*19,1735030659000
NMEA,$BDGSA,A,3,202,209,214,224,,,,,,,,,1.0,0.4,0.8*26,1735030659000
NMEA,$PSSGR,GSA,A,3,14,,,,,,,,,,,,1.0,0.4,0.8,1,8*4D,1735030659000
NMEA,$PSSGR,GSA,A,3,107,121,130,,,,,,,,,,1.0,0.4,0.8,3,1*75,1735030659000
NMEA,$PSSGR,GSA,A,3,221,,,,,,,,,,,,1.0,0.4,0.8,4,5*71,1735030659000
NMEA,$GPRMC,085739.000,A,3206.2133,N,03512.4176,E,0.0,0.0,241224,,,A*68,1735030659000
NMEA,$PSAMCLK,2346,20507700,25,332521,145743,205077000*7B,1735030659000
NMEA,$GPGGA,085740.000,3206.2133,N,03512.4176,E,1,26,0.4,649.3,M,16.9,M,,*51,1735030660000
NMEA,$PSAMSA,085740.000,3206.2133,N,03512.4176,E,1,M,,*63,1735030660000
NMEA,$GPGLL,3206.2133,N,03512.4176,E,085740.000,A,A*52,1735030660000
NMEA,$GPVTG,0.0,T,,M,0.0,N,0.0,K,A*0D,1735030660000
NMEA,$GPGSV,4,1,12,05,33,266,40,07,25,072,40,13,45,322,49,14,84,019,44*71,1735030660000
NMEA,$GPGSV,4,2,12,15,13,317,42,17,29,146,41,19,11,171,23,30,53,043,44*7E,1735030660000
NMEA,$GPGSV,4,3,12*7D,1735030660000
NMEA,$GPGSV,4,4,12,14,84,019,36,30,53,043,32,8*69,1735030660000
NMEA,$GLGSV,2,1,06,65,60,315,43,66,11,331,31,72,53,167,42,74,22,036,26*61,1735030660000
NMEA,$GLGSV,2,2,06,75,59,338,46,76,28,254,39*65,1735030660000
NMEA,$GAGSV,4,1,12,107,41,128,36,119,32,318,39,121,49,223,44,127,73,040,44*63,1735030660000
NMEA,$GAGSV,4,2,12,129,79,343,45,130,20,042,26*6E,1735030660000
NMEA,$GAGSV,4,3,12,107,41,128,32,121,49,223,40,127,73,040,29,129,79,343,32,1*7E,1735030660000
NMEA,$GAGSV,4,4,12,130,20,042,28,1*7A,1735030660000
NMEA,$BDGSV,4,1,14,202,24,117,28,205,48,139,33,207,34,065,38,209,19,079,29*6F,1735030660000
NMEA,$BDGSV,4,2,14,210,43,077,34,214,44,303,38,221,40,175,48,224,39,267,42*65,1735030660000
NMEA,$BDGSV,4,3,14,226,66,355,46,233,28,313,40*60,1735030660000
NMEA,$BDGSV,4,4,14,221,40,175,43,224,39,267,36,226,66,355,34,233,28,313,31,5*74,1735030660000
NMEA,$GPGSA,A,3,05,07,13,15,17,19,30,,,,,,1.0,0.4,0.8*36,1735030660000
NMEA,$GNGSA,A,3,65,66,72,74,75,76,,,,,,,1.0,0.4,0.8*27,1735030660000
NMEA,$GAGSA,A,3,119,127,129,,,,,,,,,,1.0,0.4,0.8*19,1735030660000
NMEA,$BDGSA,A,3,207,209,210,214,224,,,,,,,,1.0,0.4,0.8*10,1735030660000
NMEA,$PSSGR,GSA,A,3,14,,,,,,,,,,,,1.0,0.4,0.8,1,8*4D,1735030660000
NMEA,$PSSGR,GSA,A,3,107,121,130,,,,,,,,,,1.0,0.4,0.8,3,1*75,1735030660000
NMEA,$PSSGR,GSA,A,3,221,,,,,,,,,,,,1.0,0.4,0.8,4,5*71,1735030660000
NMEA,$GPRMC,085740.000,A,3206.2133,N,03512.4176,E,0.0,0.0,241224,,,A*66,1735030660000
NMEA,$PSAMCLK,2346,20507800,26,333330,147858,205078000*78,1735030660000
NMEA,$GPGGA,085741.000,3206.2133,N,03512.4176,E,1,26,0.4,649.3,M,16.9,M,,*50,1735030661000
NMEA,$PSAMSA,085741.000,3206.2133,N,03512.4176,E,1,M,,*62,1735030661000
NMEA,$GPGLL,3206.2133,N,03512.4176,E,085741.000,A,A*53,1735030661000
NMEA,$GPVTG,0.0,T,,M,0.0,N,0.0,K,A*0D,1735030661000
NMEA,$GPGSV,4,1,12,05,33,266,40,07,25,072,41,13,45,322,48,14,84,019,44*71,1735030661000
NMEA,$GPGSV,4,2,12,15,13,317,42,17,29,146,40,19,11,171,23,30,53,043,44*7F,1735030661000
NMEA,$GPGSV,4,3,12*7D,1735030661000
NMEA,$GPGSV,4,4,12,14,84,019,36,30,53,043,32,8*69,1735030661000
NMEA,$GLGSV,2,1,06,65,60,315,43,66,11,331,31,72,53,167,42,74,22,036,26*61,1735030661000
NMEA,$GLGSV,2,2,06,75,59,338,45,76,28,254,39*66,1735030661000
NMEA,$GAGSV,4,1,12,107,41,128,36,119,32,318,39,121,49,223,44,127,73,040,44*63,1735030661000
NMEA,$GAGSV,4,2,12,129,79,343,45,130,20,042,26*6E,1735030661000
NMEA,$GAGSV,4,3,12,107,41,128,32,121,49,223,40,127,73,040,29,129,79,343,32,1*7E,1735030661000
NMEA,$GAGSV,4,4,12,130,20,042,28,1*7A,1735030661000
NMEA,$BDGSV,4,1,14,202,24,117,28,205,48,139,33,207,34,065,37,209,19,079,29*60,1735030661000
NMEA,$BDGSV,4,2,14,210,43,077,33,214,44,303,39,221,40,175,48,224,39,267,42*63,1735030661000
NMEA,$BDGSV,4,3,14,226,66,355,46,233,28,313,39*6E,1735030661000
NMEA,$BDGSV,4,4,14,221,40,175,43,224,39,267,37,226,66,355,34,233,28,313,31,5*75,1735030661000
NMEA,$GPGSA,A,3,05,07,13,15,17,19,,,,,,,1.0,0.4,0.8*35,1735030661000
NMEA,$GNGSA,A,3,65,66,72,75,76,,,,,,,,1.0,0.4,0.8*24,1735030661000
NMEA,$GAGSA,A,3,107,119,121,127,129,,,,,,,,1.0,0.4,0.8*1D,1735030661000
NMEA,$BDGSA,A,3,202,207,209,210,214,224,,,,,,,1.0,0.4,0.8*20,1735030661000
NMEA,$PSSGR,GSA,A,3,14,30,,,,,,,,,,,1.0,0.4,0.8,1,8*4E,1735030661000
NMEA,$PSSGR,GSA,A,3,130,,,,,,,,,,,,1.0,0.4,0.8,3,1*71,1735030661000
NMEA,$PSSGR,GSA,A,3,221,,,,,,,,,,,,1.0,0.4,0.8,4,5*71,1735030661000
NMEA,$GPRMC,085741.000,A,3206.2133,N,03512.4176,E,0.0,0.0,241224,,,A*67,1735030661000
NMEA,$PSAMCLK,2346,20507900,26,333896,149975,205079000*7F,1735030661000
NMEA,$GPGGA,085742.000,3206.2133,N,03512.4176,E,1,27,0.4,649.3,M,16.9,M,,*52,1735030662000
NMEA,$PSAMSA,085742.000,3206.2133,N,03512.4176,E,1,M,,*61,1735030662000
NMEA,$GPGLL,3206.2133,N,03512.4176,E,085742.000,A,A*50,1735030662000
NMEA,$GPVTG,0.0,T,,M,0.0,N,0.0,K,A*0D,1735030662000
NMEA,$GPGSV,4,1,12,05,33,266,40,07,25,072,41,13,45,322,48,14,84,019,44*71,1735030662000
NMEA,$GPGSV,4,2,12,15,13,317,42,17,29,146,39,19,11,171,23,30,53,043,43*76,1735030662000
NMEA,$GPGSV,4,3,12*7D,1735030662000
NMEA,$GPGSV,4,4,12,14,84,019,37,30,53,043,32,8*68,1735030662000
NMEA,$GLGSV,2,1,06,65,60,315,43,66,11,331,31,72,53,167,42,74,22,036,26*61,1735030662000
NMEA,$GLGSV,2,2,06,75,59,338,44,76,28,254,38*66,1735030662000
NMEA,$GAGSV,4,1,12,107,41,128,36,119,32,318,39,121,49,223,44,127,73,040,44*63,1735030662000
NMEA,$GAGSV,4,2,12,129,79,343,45,130,20,042,26*6E,1735030662000
NMEA,$GAGSV,4,3,12,107,41,128,31,121,49,223,40,127,73,040,29,129,79,343,32,1*7D,1735030662000
NMEA,$GAGSV,4,4,12,130,20,042,28,1*7A,1735030662000
NMEA,$BDGSV,4,1,14,202,24,117,28,205,48,139,33,207,34,065,36,209,19,079,29*61,1735030662000
NMEA,$BDGSV,4,2,14,210,43,077,32,214,44,303,39,221,40,175,48,224,39,267,42*62,1735030662000
NMEA,$BDGSV,4,3,14,226,66,355,46,233,28,313,39*6E,1735030662000
NMEA,$BDGSV,4,4,14,221,40,175,43,224,39,267,39,226,66,355,34,233,28,313,31,5*7B,1735030662000
NMEA,$GPGSA,A,3,05,07,13,15,17,19,,,,,,,0.8,0.4,0.8*3C,1735030662000
NMEA,$GNGSA,A,3,65,66,72,74,75,76,,,,,,,0.8,0.4,0.8*2E,1735030662000
NMEA,$GAGSA,A,3,107,119,121,127,129,,,,,,,,0.8,0.4,0.8*14,1735030662000
NMEA,$BDGSA,A,3,202,207,209,210,214,,,,,,,,0.8,0.4,0.8*1D,1735030662000
NMEA,$PSSGR,GSA,A,3,14,30,,,,,,,,,,,0.8,0.4,0.8,1,8*47,1735030662000
NMEA,$PSSGR,GSA,A,3,130,,,,,,,,,,,,0.8,0.4,0.8,3,1*78,1735030662000
NMEA,$PSSGR,GSA,A,3,221,224,,,,,,,,,,,0.8,0.4,0.8,4,5*4C,1735030662000
NMEA,$GPRMC,085742.000,A,3206.2133,N,03512.4176,E,0.0,0.0,241224,,,A*64,1735030662000
NMEA,$PSAMCLK,2346,20508000,27,334364,152097,205080000*70,1735030662000
NMEA,$GPGGA,085743.000,3206.2133,N,03512.4176,E,1,28,0.4,649.3,M,16.9,M,,*5C,1735030663000
NMEA,$PSAMSA,085743.000,3206.2133,N,03512.4176,E,1,M,,*60,1735030663000
NMEA,$GPGLL,3206.2133,N,03512.4176,E,085743.000,A,A*51,1735030663000
NMEA,$GPVTG,0.0,T,,M,0.0,N,0.0,K,A*0D,1735030663000
NMEA,$GPGSV,4,1,12,05,33,266,39,07,25,072,40,13,45,322,47,14,84,019,44*71,1735030663000
NMEA,$GPGSV,4,2,12,15,13,317,42,17,29,146,38,19,11,171,23,20,24,228,26*7A,1735030663000
NMEA,$GPGSV,4,3,12,30,53,043,42*49,1735030663000
NMEA,$GPGSV,4,4,12,14,84,019,37,30,53,043,32,8*68,1735030663000
NMEA,$GLGSV,2,1,06,65,60,315,43,66,11,331,31,72,53,167,42,74,22,036,26*61,1735030663000
NMEA,$GLGSV,2,2,06,75,59,338,44,76,28,254,38*66,1735030663000
NMEA,$GAGSV,4,1,12,107,41,128,36,119,32,318,39,121,49,223,45,127,73,040,44*62,1735030663000
NMEA,$GAGSV,4,2,12,129,79,343,46,130,20,042,26*6D,1735030663000
NMEA,$GAGSV,4,3,12,107,41,128,30,121,49,223,40,127,73,040,28,129,79,343,32,1*7D,1735030663000
NMEA,$GAGSV,4,4,12,130,20,042,28,1*7A,1735030663000
NMEA,$BDGSV,4,1,14,202,24,117,28,205,48,139,34,207,34,065,36,209,19,079,29*66,1735030663000
NMEA,$BDGSV,4,2,14,210,43,077,31,214,44,303,39,221,40,175,48,224,39,267,42*61,1735030663000
NMEA,$BDGSV,4,3,14,226,66,355,46,233,28,313,38*6F,1735030663000
NMEA,$BDGSV,4,4,14,221,40,175,43,224,39,267,39,226,66,355,33,233,28,313,31,5*7C,1735030663000
NMEA,$GPGSA,A,3,05,07,13,15,17,19,20,,,,,,0.8,0.4,0.8*3E,1735030663000
NMEA,$GNGSA,A,3,65,66,72,74,75,76,,,,,,,0.8,0.4,0.8*2E,1735030663000
NMEA,$GAGSA,A,3,107,119,121,127,129,,,,,,,,0.8,0.4,0.8*14,1735030663000
NMEA,$BDGSA,A,3,202,207,209,210,214,,,,,,,,0.8,0.4,0.8*1D,1735030663000
NMEA,$PSSGR,GSA,A,3,14,30,,,,,,,,,,,0.8,0.4,0.8,1,8*47,1735030663000
NMEA,$PSSGR,GSA,A,3,130,,,,,,,,,,,,0.8,0.4,0.8,3,1*78,1735030663000
NMEA,$PSSGR,GSA,A,3,221,224,,,,,,,,,,,0.8,0.4,0.8,4,5*4C,1735030663000
NMEA,$GPRMC,085743.000,A,3206.2133,N,03512.4176,E,0.0,0.0,241224,,,A*65,1735030663000
NMEA,$PSAMCLK,2346,20508100,28,334119,154219,205081000*75,1735030663000
NMEA,$GPGGA,085744.000,3206.2133,N,03512.4176,E,1,28,0.4,649.3,M,16.9,M,,*5B,1735030664000
NMEA,$PSAMSA,085744.000,3206.2133,N,03512.4176,E,1,M,,*67,1735030664000
NMEA,$GPGLL,3206.2133,N,03512.4176,E,085744.000,A,A*56,1735030664000
NMEA,$GPVTG,0.0,T,,M,0.0,N,0.0,K,A*0D,1735030664000
NMEA,$GPGSV,4,1,12,05,33,266,39,07,25,072,39,13,45,322,47,14,84,019,44*7F,1735030664000
NMEA,$GPGSV,4,2,12,15,13,317,42,17,29,146,37,19,11,171,22,20,24,228,26*74,1735030664000
NMEA,$GPGSV,4,3,12,30,53,043,41*4A,1735030664000
NMEA,$GPGSV,4,4,12,14,84,019,37,30,53,043,32,8*68,1735030664000
NMEA,$GLGSV,2,1,06,65,60,315,43,66,11,331,31,72,53,167,42,74,22,036,26*61,1735030664000
NMEA,$GLGSV,2,2,06,75,59,338,43,76,28,254,38*61,1735030664000
NMEA,$GAGSV,4,1,11,107,41,128,36,119,32,318,39,121,49,223,45,127,73,040,44*61,1735030664000
NMEA,$GAGSV,4,2,11,129,79,343,46,130,20,042,26*6E,1735030664000
NMEA,$GAGSV,4,3,11,107,41,128,30,121,49,223,39,127,73,040,28,129,79,343,32,1*70,1735030664000
NMEA,$GAGSV,4,4,11,130,20,042,28,1*79,1735030664000
NMEA,$BDGSV,4,1,14,202,24,117,29,205,48,139,34,207,34,065,36,209,19,079,29*67,1735030664000
NMEA,$BDGSV,4,2,14,210,43,077,31,214,44,303,39,221,40,175,48,224,39,267,42*61,1735030664000
NMEA,$BDGSV,4,3,14,226,66,355,47,233,28,313,38*6E,1735030664000
NMEA,$BDGSV,4,4,14,221,40,175,43,224,39,267,39,226,66,355,33,233,28,313,30,5*7D,1735030664000
NMEA,$GPGSA,A,3,05,07,13,15,17,19,20,,,,,,0.8,0.4,0.8*3E,1735030664000
NMEA,$GNGSA,A,3,65,66,72,74,75,76,,,,,,,0.8,0.4,0.8*2E,1735030664000
NMEA,$GAGSA,A,3,107,119,121,127,129,,,,,,,,0.8,0.4,0.8*14,1735030664000
NMEA,$BDGSA,A,3,202,207,209,210,214,,,,,,,,0.8,0.4,0.8*1D,1735030664000
NMEA,$PSSGR,GSA,A,3,14,30,,,,,,,,,,,0.8,0.4,0.8,1,8*47,1735030664000
NMEA,$PSSGR,GSA,A,3,130,,,,,,,,,,,,0.8,0.4,0.8,3,1*78,1735030664000
NMEA,$PSSGR,GSA,A,3,221,224,,,,,,,,,,,0.8,0.4,0.8,4,5*4C,1735030664000
NMEA,$GPRMC,085744.000,A,3206.2133,N,03512.4176,E,0.0,0.0,241224,,,A*62,1735030664000
NMEA,$PSAMCLK,2346,20508200,28,333584,156335,205082000*7F,1735030664000
NMEA,$GPGGA,085745.000,3206.2133,N,03512.4176,E,1,28,0.4,649.2,M,16.9,M,,*5B,1735030665000
NMEA,$PSAMSA,085745.000,3206.2133,N,03512.4176,E,1,M,,*66,1735030665000
NMEA,$GPGLL,3206.2133,N,03512.4176,E,085745.000,A,A*57,1735030665000
NMEA,$GPVTG,0.0,T,,M,0.0,N,0.0,K,A*0D,1735030665000
NMEA,$GPGSV,4,1,12,05,33,266,39,07,25,072,39,13,45,322,46,14,84,019,44*7E,1735030665000
NMEA,$GPGSV,4,2,12,15,13,317,42,17,29,146,37,19,11,171,23,20,24,228,26*75,1735030665000
NMEA,$GPGSV,4,3,12,30,53,043,41*4A,1735030665000
NMEA,$GPGSV,4,4,12,14,84,019,37,30,53,043,32,8*68,1735030665000
NMEA,$GLGSV,2,1,06,65,60,315,43,66,11,331,30,72,53,167,42,74,22,036,26*60,1735030665000
NMEA,$GLGSV,2,2,06,75,59,338,43,76,28,254,38*61,1735030665000
NMEA,$GAGSV,4,1,11,107,41,128,36,119,32,318,39,121,49,223,45,127,73,040,44*61,1735030665000
NMEA,$GAGSV,4,2,11,129,79,343,46,130,20,042,26*6E,1735030665000
NMEA,$GAGSV,4,3,11,107,41,128,31,121,49,223,39,127,73,040,28,129,79,343,32,1*71,1735030665000
NMEA,$GAGSV,4,4,11,130,20,042,28,1*79,1735030665000
NMEA,$BDGSV,4,1,15,202,24,117,29,205,48,139,34,207,34,065,35,209,19,079,27*6B,1735030665000
NMEA,$BDGSV,4,2,15,210,43,077,31,214,44,303,39,221,40,175,48,224,39,267,42*60,1735030665000
NMEA,$BDGSV,4,3,15,226,66,355,47,229,08,064,30,233,28,313,38*6F,1735030665000
NMEA,$BDGSV,4,4,15,221,40,175,44,224,39,267,38,226,66,355,33,233,28,313,30,5*7A,1735030665000
NMEA,$GPGSA,A,3,05,07,13,15,17,19,,,,,,,0.8,0.4,0.6*32,1735030665000
NMEA,$GNGSA,A,3,65,66,72,74,75,76,,,,,,,0.8,0.4,0.6*20,1735030665000
NMEA,$GAGSA,A,3,107,119,121,127,129,,,,,,,,0.8,0.4,0.6*1A,1735030665000
NMEA,$BDGSA,A,3,202,207,210,214,226,229,,,,,,,0.8,0.4,0.6*27,1735030665000
NMEA,$PSSGR,GSA,A,3,14,30,,,,,,,,,,,0.8,0.4,0.6,1,8*49,1735030665000
NMEA,$PSSGR,GSA,A,3,130,,,,,,,,,,,,0.8,0.4,0.6,3,1*76,1735030665000
NMEA,$PSSGR,GSA,A,3,221,224,,,,,,,,,,,0.8,0.4,0.6,4,5*42,1735030665000
NMEA,$GPRMC,085745.000,A,3206.2133,N,03512.4176,E,0.0,0.0,241224,,,A*63,1735030665000
NMEA,$PSAMCLK,2346,20508300,28,333207,158450,205083000*79,1735030665000
NMEA,$GPGGA,085746.000,3206.2133,N,03512.4176,E,1,29,0.4,649.3,M,16.9,M,,*58,1735030666000
NMEA,$PSAMSA,085746.000,3206.2133,N,03512.4176,E,1,M,,*65,1735030666000
NMEA,$GPGLL,3206.2133,N,03512.4176,E,085746.000,A,A*54,1735030666000
NMEA,$GPVTG,0.0,T,,M,0.0,N,0.0,K,A*0D,1735030666000
NMEA,$GPGSV,4,1,12,05,33,266,39,07,25,072,39,13,45,322,46,14,84,019,44*7E,1735030666000
NMEA,$GPGSV,4,2,12,15,13,317,42,17,29,146,37,19,11,171,23,20,24,228,27*74,1735030666000
NMEA,$GPGSV,4,3,12,30,53,043,40*4B,1735030666000
NMEA,$GPGSV,4,4,12,14,84,019,36,30,53,043,35,8*6E,1735030666000
NMEA,$GLGSV,2,1,06,65,60,315,43,66,11,331,30,72,53,167,42,74,22,036,26*60,1735030666000
NMEA,$GLGSV,2,2,06,75,59,338,43,76,28,254,38*61,1735030666000
NMEA,$GAGSV,4,1,11,107,41,128,36,119,32,318,39,121,49,223,45,127,73,040,44*61,1735030666000
NMEA,$GAGSV,4,2,11,129,79,343,46,130,20,042,26*6E,1735030666000
NMEA,$GAGSV,4,3,11,107,41,128,31,121,49,223,39,127,73,040,28,129,79,343,32,1*71,1735030666000
NMEA,$GAGSV,4,4,11,130,20,042,28,1*79,1735030666000
NMEA,$BDGSV,4,1,15,202,24,117,29,205,48,139,34,207,34,065,35,209,19,079,25*69,1735030666000
NMEA,$BDGSV,4,2,15,210,43,077,31,214,44,303,39,221,40,175,48,224,39,267,42*60,1735030666000
NMEA,$BDGSV,4,3,15,226,66,355,47,229,08,064,29,233,28,313,38*67,1735030666000
NMEA,$BDGSV,4,4,15,221,40,175,44,224,39,267,39,226,66,355,32,233,28,313,30,5*7A,1735030666000
NMEA,$GPGSA,A,3,05,07,13,15,17,19,20,,,,,,0.8,0.4,0.8*3E,1735030666000
NMEA,$GNGSA,A,3,65,66,72,74,75,76,,,,,,,0.8,0.4,0.8*2E,1735030666000
NMEA,$GAGSA,A,3,107,119,121,127,129,,,,,,,,0.8,0.4,0.8*14,1735030666000
NMEA,$BDGSA,A,3,202,207,209,210,214,226,,,,,,,0.8,0.4,0.8*2B,1735030666000
NMEA,$PSSGR,GSA,A,3,14,30,,,,,,,,,,,0.8,0.4,0.8,1,8*47,1735030666000
NMEA,$PSSGR,GSA,A,3,130,,,,,,,,,,,,0.8,0.4,0.8,3,1*78,1735030666000
NMEA,$PSSGR,GSA,A,3,221,224,,,,,,,,,,,0.8,0.4,0.8,4,5*4C,1735030666000
NMEA,$GPRMC,085746.000,A,3206.2133,N,03512.4176,E,0.0,0.0,241224,,,A*60,1735030666000
NMEA,$PSAMCLK,2346,20508400,29,332751,160564,205084000*72,1735030666000
NMEA,$GPGGA,085747.000,3206.2133,N,03512.4176,E,1,28,0.4,649.3,M,16.9,M,,*58,1735030667000
NMEA,$PSAMSA,085747.000,3206.2133,N,03512.4176,E,1,M,,*64,1735030667000
NMEA,$GPGLL,3206.2133,N,03512.4176,E,085747.000,A,A*55,1735030667000
NMEA,$GPVTG,0.0,T,,M,0.0,N,0.0,K,A*0D,1735030667000
NMEA,$GPGSV,4,1,12,05,33,266,39,07,25,072,39,13,45,322,46,14,84,019,45*7F,1735030667000
NMEA,$GPGSV,4,2,12,15,13,317,42,17,29,146,40,19,11,171,24,20,24,228,28*7C,1735030667000
NMEA,$GPGSV,4,3,12,30,53,043,40*4B,1735030667000
NMEA,$GPGSV,4,4,12,14,84,019,36,30,53,043,35,8*6E,1735030667000
NMEA,$GLGSV,2,1,06,65,60,315,43,66,11,331,29,72,53,167,42,74,22,036,26*68,1735030667000
NMEA,$GLGSV,2,2,06,75,59,338,44,76,28,254,38*66,1735030667000
NMEA,$GAGSV,4,1,11,107,41,128,36,119,32,318,39,121,49,223,45,127,73,040,44*61,1735030667000
NMEA,$GAGSV,4,2,11,129,79,343,46,130,20,042,26*6E,1735030667000
NMEA,$GAGSV,4,3,11,107,41,128,31,121,49,223,39,127,73,040,30,129,79,343,32,1*78,1735030667000
NMEA,$GAGSV,4,4,11,130,20,042,28,1*79,1735030667000
NMEA,$BDGSV,4,1,15,202,24,117,29,205,48,139,34,207,34,065,35,209,19,079,25*69,1735030667000
NMEA,$BDGSV,4,2,15,210,43,077,31,214,44,303,39,221,40,175,48,224,39,267,42*60,1735030667000
NMEA,$BDGSV,4,3,15,226,66,355,48,229,08,064,26,233,28,313,37*68,1735030667000
NMEA,$BDGSV,4,4,15,221,40,175,44,224,39,267,39,226,66,355,32,233,28,313,33,5*79,1735030667000
NMEA,$GPGSA,A,3,05,07,13,15,17,19,20,,,,,,0.8,0.4,0.8*3E,1735030667000
NMEA,$GNGSA,A,3,65,66,72,74,75,76,,,,,,,0.8,0.4,0.8*2E,1735030667000
NMEA,$GAGSA,A,3,107,119,121,127,129,,,,,,,,0.8,0.4,0.8*14,1735030667000
NMEA,$BDGSA,A,3,202,207,210,214,226,,,,,,,,0.8,0.4,0.8*10,1735030667000
NMEA,$PSSGR,GSA,A,3,14,30,,,,,,,,,,,0.8,0.4,0.8,1,8*47,1735030667000
NMEA,$PSSGR,GSA,A,3,130,,,,,,,,,,,,0.8,0.4,0.8,3,1*78,1735030667000
NMEA,$PSSGR,GSA,A,3,221,224,,,,,,,,,,,0.8,0.4,0.8,4,5*4C,1735030667000
NMEA,$GPRMC,085747.000,A,3206.2133,N,03512.4176,E,0.0,0.0,241224,,,A*61,1735030667000
NMEA,$PSAMCLK,2346,20508500,28,332680,162676,205085000*7C,1735030667000
NMEA,$GPGGA,085748.000,3206.2133,N,03512.4176,E,1,29,0.4,649.3,M,16.9,M,,*56,1735030668000
NMEA,$PSAMSA,085748.000,3206.2133,N,03512.4176,E,1,M,,*6B,1735030668000
NMEA,$GPGLL,3206.2133,N,03512.4176,E,085748.000,A,A*5A,1735030668000
NMEA,$GPVTG,0.0,T,,M,0.0,N,0.0,K,A*0D,1735030668000
NMEA,$GPGSV,4,1,12,05,33,266,39,07,25,072,39,13,45,322,46,14,84,019,45*7F,1735030668000
NMEA,$GPGSV,4,2,12,15,13,317,42,17,29,146,43,19,11,171,24,20,24,228,28*7F,1735030668000
NMEA,$GPGSV,4,3,12,30,53,043,40*4B,1735030668000
NMEA,$GPGSV,4,4,12,14,84,019,36,30,53,043,36,8*6D,1735030668000
NMEA,$GLGSV,2,1,06,65,60,315,43,66,11,331,28,72,53,167,42,74,22,036,26*69,1735030668000
NMEA,$GLGSV,2,2,06,75,59,338,44,76,28,254,38*66,1735030668000
NMEA,$GAGSV,4,1,11,107,41,128,36,119,32,318,39,121,49,223,46,127,73,040,44*62,1735030668000
NMEA,$GAGSV,4,2,11,129,79,343,46,130,20,042,26*6E,1735030668000
NMEA,$GAGSV,4,3,11,107,41,128,31,121,49,223,39,127,73,040,30,129,79,343,32,1*78,1735030668000
NMEA,$GAGSV,4,4,11,130,20,042,27,1*76,1735030668000
NMEA,$BDGSV,4,1,15,202,24,117,30,205,48,139,35,207,34,065,35,209,19,079,25*60,1735030668000
NMEA,$BDGSV,4,2,15,210,43,077,31,214,44,303,39,221,40,175,48,224,39,267,41*63,1735030668000
NMEA,$BDGSV,4,3,15,226,66,355,48,229,08,064,23,233,28,313,37*6D,1735030668000
NMEA,$BDGSV,4,4,15,221,40,175,44,224,39,267,39,226,66,355,32,233,28,313,33,5*79,1735030668000
NMEA,$GPGSA,A,3,05,07,13,15,17,19,20,,,,,,0.8,0.4,0.8*3E,1735030668000
NMEA,$GNGSA,A,3,65,66,72,74,75,76,,,,,,,0.8,0.4,0.8*2E,1735030668000
NMEA,$GAGSA,A,3,107,119,121,127,129,,,,,,,,0.8,0.4,0.8*14,1735030668000
NMEA,$BDGSA,A,3,202,207,209,210,214,221,226,,,,,,0.8,0.4,0.8*1A,1735030668000
NMEA,$PSSGR,GSA,A,3,14,30,,,,,,,,,,,0.8,0.4,0.8,1,8*47,1735030668000
NMEA,$PSSGR,GSA,A,3,130,,,,,,,,,,,,0.8,0.4,0.8,3,1*78,1735030668000
NMEA,$PSSGR,GSA,A,3,224,,,,,,,,,,,,0.8,0.4,0.8,4,5*7D,1735030668000
NMEA,$GPRMC,085748.000,A,3206.2133,N,03512.4176,E,0.0,0.0,241224,,,A*6E,1735030668000
NMEA,$PSAMCLK,2346,20508600,29,332511,164786,205086000*7E,1735030668000
NMEA,$GPGGA,085749.000,3206.2131,N,03512.4179,E,1,29,0.4,650.0,M,16.9,M,,*51,1735030669000
NMEA,$PSAMSA,085749.000,3206.2131,N,03512.4179,E,0,M,,*66,1735030669000
NMEA,$GPGLL,3206.2131,N,03512.4179,E,085749.000,A,A*56,1735030669000
NMEA,$GPVTG,0.0,T,,M,0.4,N,0.8,K,A*01,1735030669000
NMEA,$GPGSV,4,1,11,05,33,266,39,07,25,072,38,13,45,322,46,14,84,019,45*7D,1735030669000
NMEA,$GPGSV,4,2,11,15,13,317,42,17,29,146,43,19,11,171,25,20,24,228,28*7D,1735030669000
NMEA,$GPGSV,4,3,11,30,53,043,40*48,1735030669000
NMEA,$GPGSV,4,4,11,14,84,019,35,30,53,043,36,8*6D,1735030669000
NMEA,$GLGSV,2,1,06,65,60,315,43,66,11,331,31,72,53,167,42,74,22,036,26*61,1735030669000
NMEA,$GLGSV,2,2,06,75,59,338,44,76,28,254,37*69,1735030669000
NMEA,$GAGSV,4,1,12,107,41,128,36,119,32,318,39,121,49,223,46,127,73,040,45*60,1735030669000
NMEA,$GAGSV,4,2,12,129,79,343,46,130,20,042,26*6D,1735030669000
NMEA,$GAGSV,4,3,12,107,41,128,31,119,32,318,23,121,49,223,39,127,73,040,30,1*79,1735030669000
NMEA,$GAGSV,4,4,12,129,79,343,33,130,20,042,27,1*75,1735030669000
NMEA,$BDGSV,4,1,15,202,24,117,30,205,48,139,35,207,34,065,35,209,19,079,25*60,1735030669000
NMEA,$BDGSV,4,2,15,210,43,077,31,214,44,303,39,221,40,175,48,224,39,267,41*63,1735030669000
NMEA,$BDGSV,4,3,15,226,66,355,48,229,08,064,20,233,28,313,37*6E,1735030669000
NMEA,$BDGSV,4,4,15,221,40,175,44,224,39,267,38,226,66,355,32,233,28,313,33,5*78,1735030669000
NMEA,$GPGSA,A,3,05,07,13,15,17,19,20,,,,,,0.8,0.4,0.8*3E,1735030669000
NMEA,$GNGSA,A,3,65,66,72,74,75,76,,,,,,,0.8,0.4,0.8*2E,1735030669000
NMEA,$GAGSA,A,3,119,121,127,129,,,,,,,,,0.8,0.4,0.8*22,1735030669000
NMEA,$BDGSA,A,3,202,207,209,210,214,221,226,,,,,,0.8,0.4,0.8*1A,1735030669000
NMEA,$PSSGR,GSA,A,3,14,30,,,,,,,,,,,0.8,0.4,0.8,1,8*47,1735030669000
NMEA,$PSSGR,GSA,A,3,107,130,,,,,,,,,,,0.8,0.4,0.8,3,1*4E,1735030669000
NMEA,$PSSGR,GSA,A,3,224,,,,,,,,,,,,0.8,0.4,0.8,4,5*7D,1735030669000
NMEA,$GPRMC,085749.000,A,3206.2131,N,03512.4179,E,0.4,0.0,241224,,,A*66,1735030669000
NMEA,$PSAMCLK,2346,20508700,29,332401,166897,205087000*73,1735030669000
NMEA,$GPGGA,085750.000,3206.2132,N,03512.4177,E,1,29,0.4,649.6,M,16.8,M,,*5B,1735030670000
NMEA,$PSAMSA,085750.000,3206.2132,N,03512.4177,E,0,M,,*63,1735030670000
NMEA,$GPGLL,3206.2132,N,03512.4177,E,085750.000,A,A*53,1735030670000
NMEA,$GPVTG,0.0,T,,M,0.5,N,0.9,K,A*01,1735030670000
NMEA,$GPGSV,4,1,11,05,33,266,39,07,25,072,38,13,46,322,45,14,84,019,45*7D,1735030670000
NMEA,$GPGSV,4,2,11,15,13,317,42,17,29,146,43,19,11,171,25,20,24,228,29*7C,1735030670000
NMEA,$GPGSV,4,3,11,30,53,043,40*48,1735030670000
NMEA,$GPGSV,4,4,11,14,84,019,35,30,53,043,36,8*6D,1735030670000
NMEA,$GLGSV,2,1,06,65,60,315,43,66,11,331,34,72,53,167,42,74,22,036,26*64,1735030670000
NMEA,$GLGSV,2,2,06,75,59,338,44,76,28,254,36*68,1735030670000
NMEA,$GAGSV,4,1,12,107,41,128,36,119,32,318,39,121,49,223,46,127,73,040,45*60,1735030670000
NMEA,$GAGSV,4,2,12,129,79,343,46,130,20,042,26*6D,1735030670000
NMEA,$GAGSV,4,3,12,107,41,128,35,119,32,318,23,121,49,223,39,127,73,040,33,1*7E,1735030670000
NMEA,$GAGSV,4,4,12,129,79,343,33,130,20,042,27,1*75,1735030670000
NMEA,$BDGSV,4,1,15,202,24,117,30,205,48,139,35,207,34,065,35,209,19,079,26*63,1735030670000
NMEA,$BDGSV,4,2,15,210,43,077,31,214,44,303,39,221,40,175,48,224,39,267,41*63,1735030670000
NMEA,$BDGSV,4,3,15,226,66,355,48,229,08,064,17,233,28,313,37*6A,1735030670000
NMEA,$BDGSV,4,4,15,221,40,175,44,224,39,267,37,226,66,355,32,233,28,313,33,5*77,1735030670000
NMEA,$GPGSA,A,3,05,07,13,15,17,19,20,,,,,,0.8,0.4,0.8*3E,1735030670000
NMEA,$GNGSA,A,3,65,66,72,74,75,76,,,,,,,0.8,0.4,0.8*2E,1735030670000
NMEA,$GAGSA,A,3,119,121,127,129,,,,,,,,,0.8,0.4,0.8*22,1735030670000
NMEA,$BDGSA,A,3,202,207,209,210,214,224,226,,,,,,0.8,0.4,0.8*1F,1735030670000
NMEA,$PSSGR,GSA,A,3,14,30,,,,,,,,,,,0.8,0.4,0.8,1,8*47,1735030670000
NMEA,$PSSGR,GSA,A,3,107,130,,,,,,,,,,,0.8,0.4,0.8,3,1*4E,1735030670000
NMEA,$PSSGR,GSA,A,3,221,,,,,,,,,,,,0.8,0.4,0.8,4,5*78,1735030670000
NMEA,$GPRMC,085750.000,A,3206.2132,N,03512.4177,E,0.5,0.0,241224,,,A*62,1735030670000
NMEA,$PSAMCLK,2346,20508800,29,332556,169013,205088000*7B,1735030670000
NMEA,$GPGGA,085751.000,3206.2137,N,03512.4175,E,1,28,0.4,650.1,M,16.9,M,,*52,1735030671000
NMEA,$PSAMSA,085751.000,3206.2137,N,03512.4175,E,0,M,,*65,1735030671000
NMEA,$GPGLL,3206.2137,N,03512.4175,E,085751.000,A,A*55,1735030671000
NMEA,$GPVTG,0.0,T,,M,1.8,N,3.4,K,A*03,1735030671000
NMEA,$GPGSV,4,1,11,05,33,266,39,07,25,072,38,13,46,322,45,14,84,019,45*7D,1735030671000
NMEA,$GPGSV,4,2,11,15,13,317,42,17,29,146,43,19,11,171,25,20,24,228,35*71,1735030671000
NMEA,$GPGSV,4,3,11,30,53,043,40*48,1735030671000
NMEA,$GPGSV,4,4,11,14,84,019,35,30,53,043,35,8*6E,1735030671000
NMEA,$GLGSV,2,1,06,65,60,315,43,66,11,331,34,72,53,167,42,74,22,036,26*64,1735030671000
NMEA,$GLGSV,2,2,06,75,59,338,44,76,28,254,36*68,1735030671000
NMEA,$GAGSV,4,1,12,107,41,128,36,119,32,318,39,121,49,223,46,127,73,040,45*60,1735030671000
NMEA,$GAGSV,4,2,12,129,79,343,47,130,20,042,26*6C,1735030671000
NMEA,$GAGSV,4,3,12,107,41,128,34,119,32,318,26,121,49,223,38,127,73,040,33,1*7B,1735030671000
NMEA,$GAGSV,4,4,12,129,79,343,35,130,20,042,26,1*72,1735030671000
NMEA,$BDGSV,4,1,15,202,24,117,30,205,48,139,35,207,34,065,36,209,19,079,26*60,1735030671000
NMEA,$BDGSV,4,2,15,210,43,077,32,214,44,303,40,221,40,175,48,224,39,267,41*6E,1735030671000
NMEA,$BDGSV,4,3,15,226,66,355,48,229,08,064,14,233,28,313,37*69,1735030671000
NMEA,$BDGSV,4,4,15,221,40,175,44,224,39,267,36,226,66,355,32,233,28,313,33,5*76,1735030671000
NMEA,$GPGSA,A,3,05,07,13,15,17,19,20,,,,,,0.8,0.4,0.8*3E,1735030671000
NMEA,$GNGSA,A,3,65,66,72,75,76,,,,,,,,0.8,0.4,0.8*2D,1735030671000
NMEA,$GAGSA,A,3,119,121,127,129,,,,,,,,,0.8,0.4,0.8*22,1735030671000
NMEA,$BDGSA,A,3,202,207,209,210,214,224,226,,,,,,0.8,0.4,0.8*1F,1735030671000
NMEA,$PSSGR,GSA,A,3,14,30,,,,,,,,,,,0.8,0.4,0.8,1,8*47,1735030671000
NMEA,$PSSGR,GSA,A,3,107,130,,,,,,,,,,,0.8,0.4,0.8,3,1*4E,1735030671000
NMEA,$PSSGR,GSA,A,3,221,,,,,,,,,,,,0.8,0.4,0.8,4,5*78,1735030671000
NMEA,$GPRMC,085751.000,A,3206.2137,N,03512.4175,E,1.8,0.0,241224,,,A*68,1735030671000
NMEA,$PSAMCLK,2346,20508900,28,333034,171124,205089000*76,1735030671000
NMEA,$GPGGA,085752.000,3206.2143,N,03512.4173,E,1,28,0.4,650.5,M,16.9,M,,*50,1735030672000
NMEA,$PSAMSA,085752.000,3206.2143,N,03512.4173,E,0,M,,*63,1735030672000
NMEA,$GPGLL,3206.2143,N,03512.4173,E,085752.000,A,A*53,1735030672000
NMEA,$GPVTG,0.0,T,,M,1.7,N,3.1,K,A*09,1735030672000
NMEA,$GPGSV,4,1,11,05,33,266,39,07,25,072,38,13,46,322,45,14,84,019,46*7E,1735030672000
NMEA,$GPGSV,4,2,11,15,13,317,42,17,29,146,43,19,11,171,26,20,24,228,35*72,1735030672000
NMEA,$GPGSV,4,3,11,30,53,043,40*48,1735030672000
NMEA,$GPGSV,4,4,11,14,84,019,35,30,53,043,35,8*6E,1735030672000
NMEA,$GLGSV,2,1,06,65,60,315,43,66,11,331,34,72,53,167,42,74,22,036,26*64,1735030672000
NMEA,$GLGSV,2,2,06,75,59,338,44,76,28,254,36*68,1735030672000
NMEA,$GAGSV,4,1,12,107,41,128,36,119,32,318,39,121,49,223,46,127,73,040,44*61,1735030672000
NMEA,$GAGSV,4,2,12,129,79,343,47,130,20,042,26*6C,1735030672000
NMEA,$GAGSV,4,3,12,107,41,128,39,119,32,318,26,121,49,223,38,127,73,040,33,1*76,1735030672000
NMEA,$GAGSV,4,4,12,129,79,343,35,130,20,042,26,1*72,1735030672000
NMEA,$BDGSV,4,1,16,202,24,117,30,205,48,139,35,207,34,065,37,209,19,079,26*62,1735030672000
NMEA,$BDGSV,4,2,16,210,43,077,32,214,44,303,41,221,40,175,49,224,39,267,41*6D,1735030672000
NMEA,$BDGSV,4,3,16,226,66,355,48,229,08,064,12,233,28,313,37,235,15,119,30*66,1735030672000
NMEA,$BDGSV,4,4,16,221,40,175,45,224,39,267,35,226,66,355,32,233,28,313,32,5*76,1735030672000
NMEA,$GPGSA,A,3,05,07,13,15,17,19,20,,,,,,0.8,0.4,0.8*3E,1735030672000
NMEA,$GNGSA,A,3,65,66,72,74,75,76,,,,,,,0.8,0.4,0.8*2E,1735030672000
NMEA,$GAGSA,A,3,119,121,127,129,,,,,,,,,0.8,0.4,0.8*22,1735030672000
NMEA,$BDGSA,A,3,202,207,210,214,224,226,,,,,,,0.8,0.4,0.8*24,1735030672000
NMEA,$PSSGR,GSA,A,3,14,30,,,,,,,,,,,0.8,0.4,0.8,1,8*47,1735030672000
NMEA,$PSSGR,GSA,A,3,107,130,,,,,,,,,,,0.8,0.4,0.8,3,1*4E,1735030672000
NMEA,$PSSGR,GSA,A,3,221,,,,,,,,,,,,0.8,0.4,0.8,4,5*78,1735030672000
NMEA,$GPRMC,085752.000,A,3206.2143,N,03512.4173,E,1.7,0.0,241224,,,A*61,1735030672000
NMEA,$PSAMCLK,2346,20509000,28,333480,173247,205090000*79,1735030672000
NMEA,$GPGGA,085753.000,3206.2145,N,03512.4165,E,1,29,0.4,650.8,M,16.8,M,,*5D,1735030673000
NMEA,$PSAMSA,085753.000,3206.2145,N,03512.4165,E,0,M,,*63,1735030673000
NMEA,$GPGLL,3206.2145,N,03512.4165,E,085753.000,A,A*53,1735030673000
NMEA,$GPVTG,0.0,T,,M,1.7,N,3.1,K,A*09,1735030673000
NMEA,$GPGSV,4,1,11,05,33,266,39,07,25,072,38,13,46,322,45,14,84,019,46*7E,1735030673000
NMEA,$GPGSV,4,2,11,15,13,317,41,17,29,146,43,19,11,171,26,20,24,228,35*71,1735030673000
NMEA,$GPGSV,4,3,11,30,53,043,40*48,1735030673000
NMEA,$GPGSV,4,4,11,14,84,019,35,30,53,043,36,8*6D,1735030673000
NMEA,$GLGSV,2,1,06,65,60,315,43,66,11,331,34,72,53,167,42,74,22,036,25*67,1735030673000
NMEA,$GLGSV,2,2,06,75,59,338,44,76,28,254,35*6B,1735030673000
NMEA,$GAGSV,4,1,12,107,41,128,36,119,32,318,39,121,49,223,46,127,73,040,44*61,1735030673000
NMEA,$GAGSV,4,2,12,129,79,343,47,130,20,042,27*6D,1735030673000
NMEA,$GAGSV,4,3,12,107,41,128,39,119,32,318,25,121,49,223,37,127,73,040,33,1*7A,1735030673000
NMEA,$GAGSV,4,4,12,129,79,343,35,130,20,042,26,1*72,1735030673000
NMEA,$BDGSV,4,1,15,202,24,117,31,205,48,139,36,207,34,065,37,209,19,079,26*63,1735030673000
NMEA,$BDGSV,4,2,15,210,43,077,32,214,44,303,41,221,40,175,48,224,39,267,41*6F,1735030673000
NMEA,$BDGSV,4,3,15,226,66,355,48,233,28,313,37,235,15,119,28*6C,1735030673000
NMEA,$BDGSV,4,4,15,221,40,175,45,224,39,267,35,226,66,355,32,233,28,313,32,5*75,1735030673000
NMEA,$GPGSA,A,3,05,07,13,15,17,19,20,,,,,,0.8,0.4,0.8*3E,1735030673000
NMEA,$GNGSA,A,3,65,66,72,74,75,76,,,,,,,0.8,0.4,0.8*2E,1735030673000
NMEA,$GAGSA,A,3,119,121,127,129,,,,,,,,,0.8,0.4,0.8*22,1735030673000
NMEA,$BDGSA,A,3,202,207,209,210,214,224,226,,,,,,0.8,0.4,0.8*1F,1735030673000
NMEA,$PSSGR,GSA,A,3,14,30,,,,,,,,,,,0.8,0.4,0.8,1,8*47,1735030673000
NMEA,$PSSGR,GSA,A,3,107,130,,,,,,,,,,,0.8,0.4,0.8,3,1*4E,1735030673000
NMEA,$PSSGR,GSA,A,3,221,,,,,,,,,,,,0.8,0.4,0.8,4,5*78,1735030673000
NMEA,$GPRMC,085753.000,A,3206.2145,N,03512.4165,E,1.7,0.0,241224,,,A*61,1735030673000
NMEA,$PSAMCLK,2346,20509100,29,333557,175365,205091000*74,1735030673000
NMEA,$GPGGA,085754.000,3206.2144,N,03512.4158,E,1,28,0.4,650.6,M,16.9,M,,*5B,1735030674000
NMEA,$PSAMSA,085754.000,3206.2144,N,03512.4158,E,0,M,,*6B,1735030674000
NMEA,$GPGLL,3206.2144,N,03512.4158,E,085754.000,A,A*5B,1735030674000
NMEA,$GPVTG,0.0,T,,M,1.7,N,3.2,K,A*0A,1735030674000
NMEA,$GPGSV,4,1,11,05,33,266,39,07,25,072,38,13,46,322,45,14,84,019,46*7E,1735030674000
NMEA,$GPGSV,4,2,11,15,13,317,41,17,29,146,43,19,11,171,26,20,24,228,35*71,1735030674000
NMEA,$GPGSV,4,3,11,30,53,043,41*49,1735030674000
NMEA,$GPGSV,4,4,11,14,84,019,35,30,53,043,35,8*6E,1735030674000
NMEA,$GLGSV,2,1,06,65,60,315,43,66,11,331,33,72,53,167,42,74,22,036,25*60,1735030674000
NMEA,$GLGSV,2,2,06,75,59,338,44,76,28,254,35*6B,1735030674000
NMEA,$GAGSV,4,1,12,107,41,128,37,119,32,318,39,121,49,223,46,127,73,040,44*60,1735030674000
NMEA,$GAGSV,4,2,12,129,79,343,47,130,20,042,27*6D,1735030674000
NMEA,$GAGSV,4,3,12,107,41,128,39,119,32,318,25,121,49,223,36,127,73,040,34,1*7C,1735030674000
NMEA,$GAGSV,4,4,12,129,79,343,35,130,20,042,26,1*72,1735030674000
NMEA,$BDGSV,4,1,15,202,24,117,31,205,48,139,36,207,34,065,36,209,19,079,27*63,1735030674000
NMEA,$BDGSV,4,2,15,210,43,077,32,214,44,303,42,221,40,175,48,224,39,267,40*6D,1735030674000
NMEA,$BDGSV,4,3,15,226,66,355,48,233,28,313,38,235,15,119,25*6E,1735030674000
NMEA,$BDGSV,4,4,15,221,40,175,45,224,39,267,35,226,66,355,32,233,28,313,32,5*75,1735030674000
NMEA,$GPGSA,A,3,05,07,13,15,17,19,20,,,,,,0.8,0.4,0.8*3E,1735030674000
NMEA,$GNGSA,A,3,65,66,72,75,76,,,,,,,,0.8,0.4,0.8*2D,1735030674000
NMEA,$GAGSA,A,3,119,121,127,129,,,,,,,,,0.8,0.4,0.8*22,1735030674000
NMEA,$BDGSA,A,3,202,207,209,210,214,226,,,,,,,0.8,0.4,0.8*2B,1735030674000
NMEA,$PSSGR,GSA,A,3,14,30,,,,,,,,,,,0.8,0.4,0.8,1,8*47,1735030674000
NMEA,$PSSGR,GSA,A,3,107,130,,,,,,,,,,,0.8,0.4,0.8,3,1*4E,1735030674000
NMEA,$PSSGR,GSA,A,3,221,224,,,,,,,,,,,0.8,0.4,0.8,4,5*4C,1735030674000
NMEA,$GPRMC,085754.000,A,3206.2144,N,03512.4158,E,1.7,0.0,241224,,,A*69,1735030674000
NMEA,$PSAMCLK,2346,20509200,28,333809,177484,205092000*79,1735030674000
NMEA,$GPGGA,085755.000,3206.2146,N,03512.4152,E,1,28,0.4,651.6,M,16.9,M,,*53,1735030675000
NMEA,$PSAMSA,085755.000,3206.2146,N,03512.4152,E,0,M,,*62,1735030675000
NMEA,$GPGLL,3206.2146,N,03512.4152,E,085755.000,A,A*52,1735030675000
NMEA,$GPVTG,290.8,T,,M,1.9,N,3.5,K,A*00,1735030675000
NMEA,$GPGSV,4,1,11,05,33,266,39,07,25,072,38,13,46,322,45,14,84,019,46*7E,1735030675000
NMEA,$GPGSV,4,2,11,15,13,317,40,17,29,146,43,19,11,171,31,20,24,228,35*76,1735030675000
NMEA,$GPGSV,4,3,11,30,53,043,41*49,1735030675000
NMEA,$GPGSV,4,4,11,14,84,019,35,30,53,043,35,8*6E,1735030675000
NMEA,$GLGSV,2,1,06,65,60,315,43,66,11,331,33,72,53,167,42,74,22,036,25*60,1735030675000
NMEA,$GLGSV,2,2,06,75,59,338,44,76,28,254,35*6B,1735030675000
NMEA,$GAGSV,4,1,12,107,41,128,37,119,32,318,40,121,49,223,45,127,73,040,44*6D,1735030675000
NMEA,$GAGSV,4,2,12,129,79,343,47,130,20,042,27*6D,1735030675000
NMEA,$GAGSV,4,3,12,107,41,128,39,119,32,318,25,121,49,223,36,127,73,040,36,1*7E,1735030675000
NMEA,$GAGSV,4,4,12,129,79,343,34,130,20,042,25,1*70,1735030675000
NMEA,$BDGSV,4,1,15,202,24,117,32,205,48,139,36,207,34,065,36,209,19,079,34*62,1735030675000
NMEA,$BDGSV,4,2,15,210,43,077,32,214,44,303,42,221,40,175,48,224,39,267,40*6D,1735030675000
NMEA,$BDGSV,4,3,15,226,66,355,48,233,28,313,38,235,15,119,22*69,1735030675000
NMEA,$BDGSV,4,4,15,221,40,175,44,224,39,267,34,226,66,355,32,233,28,313,38,5*7F,1735030675000
NMEA,$GPGSA,A,3,05,07,13,15,17,19,20,,,,,,0.8,0.4,0.8*3E,1735030675000
NMEA,$GNGSA,A,3,65,66,72,75,76,,,,,,,,0.8,0.4,0.8*2D,1735030675000
NMEA,$GAGSA,A,3,119,121,127,129,,,,,,,,,0.8,0.4,0.8*22,1735030675000
NMEA,$BDGSA,A,3,202,207,209,210,214,224,226,,,,,,0.8,0.4,0.8*1F,1735030675000
NMEA,$PSSGR,GSA,A,3,14,30,,,,,,,,,,,0.8,0.4,0.8,1,8*47,1735030675000
NMEA,$PSSGR,GSA,A,3,107,130,,,,,,,,,,,0.8,0.4,0.8,3,1*4E,1735030675000
NMEA,$PSSGR,GSA,A,3,221,,,,,,,,,,,,0.8,0.4,0.8,4,5*78,1735030675000
NMEA,$GPRMC,085755.000,A,3206.2146,N,03512.4152,E,1.9,290.8,241224,,,A*6D,1735030675000
NMEA,$PSAMCLK,2346,20509300,28,334026,179607,205093000*7C,1735030675000
NMEA,$GPGGA,085756.000,3206.2148,N,03512.4146,E,1,29,0.4,652.0,M,16.8,M,,*5E,1735030676000
NMEA,$PSAMSA,085756.000,3206.2148,N,03512.4146,E,0,M,,*6A,1735030676000
NMEA,$GPGLL,3206.2148,N,03512.4146,E,085756.000,A,A*5A,1735030676000
NMEA,$GPVTG,308.8,T,,M,1.3,N,2.4,K,A*0A,1735030676000
NMEA,$GPGSV,4,1,11,05,33,266,39,07,25,072,38,13,46,322,46,14,83,019,46*7A,1735030676000
NMEA,$GPGSV,4,2,11,15,13,317,40,17,29,146,43,19,11,171,37,20,24,228,34*71,1735030676000
NMEA,$GPGSV,4,3,11,30,53,043,41*49,1735030676000
NMEA,$GPGSV,4,4,11,14,83,019,38,30,53,043,35,8*64,1735030676000
NMEA,$GLGSV,2,1,06,65,60,315,43,66,11,331,33,72,53,167,42,74,22,036,26*63,1735030676000
NMEA,$GLGSV,2,2,06,75,59,338,45,76,28,254,35*6A,1735030676000
NMEA,$GAGSV,4,1,12,107,41,128,37,119,32,318,40,121,49,223,45,127,73,040,44*6D,1735030676000
NMEA,$GAGSV,4,2,12,129,79,343,47,130,20,042,27*6D,1735030676000
NMEA,$GAGSV,4,3,12,107,41,128,38,119,32,318,25,121,49,223,36,127,73,040,36,1*7F,1735030676000
NMEA,$GAGSV,4,4,12,129,79,343,34,130,20,042,25,1*70,1735030676000
NMEA,$BDGSV,4,1,15,202,24,117,32,205,48,139,36,207,34,065,36,209,19,079,35*63,1735030676000
NMEA,$BDGSV,4,2,15,210,43,077,32,214,44,303,42,221,40,175,48,224,39,267,40*6D,1735030676000
NMEA,$BDGSV,4,3,15,226,66,355,48,233,28,313,39,235,15,119,29*63,1735030676000
NMEA,$BDGSV,4,4,15,221,40,175,44,224,39,267,34,226,66,355,32,233,28,313,38,5*7F,1735030676000
NMEA,$GPGSA,A,3,05,07,13,15,17,19,20,,,,,,0.8,0.4,0.8*3E,1735030676000
NMEA,$GNGSA,A,3,65,66,72,74,75,76,,,,,,,0.8,0.4,0.8*2E,1735030676000
NMEA,$GAGSA,A,3,119,127,129,,,,,,,,,,0.8,0.4,0.8*10,1735030676000
NMEA,$BDGSA,A,3,202,207,209,210,214,221,224,226,,,,,0.8,0.4,0.8*2E,1735030676000
NMEA,$PSSGR,GSA,A,3,14,30,,,,,,,,,,,0.8,0.4,0.8,1,8*47,1735030676000
NMEA,$PSSGR,GSA,A,3,107,121,130,,,,,,,,,,0.8,0.4,0.8,3,1*7C,1735030676000
NMEA,$GPRMC,085756.000,A,3206.2148,N,03512.4146,E,1.3,308.8,241224,,,A*6F,1735030676000
NMEA,$PSAMCLK,2346,20509400,29,334184,181730,205094000*76,1735030676000
NMEA,$GPGGA,085757.000,3206.2151,N,03512.4140,E,1,30,0.4,651.6,M,16.8,M,,*5C,1735030677000
NMEA,$PSAMSA,085757.000,3206.2151,N,03512.4140,E,0,M,,*65,1735030677000
NMEA,$GPGLL,3206.2151,N,03512.4140,E,085757.000,A,A*55,1735030677000
NMEA,$GPVTG,304.5,T,,M,1.8,N,3.3,K,A*06,1735030677000
NMEA,$GPGSV,4,1,11,05,33,266,39,07,25,072,38,13,46,322,46,14,83,019,46*7A,1735030677000
NMEA,$GPGSV,4,2,11,15,13,317,40,17,29,146,43,19,11,171,37,20,24,228,34*71,1735030677000
NMEA,$GPGSV,4,3,11,30,53,043,41*49,1735030677000
NMEA,$GPGSV,4,4,11,14,83,019,38,30,53,043,35,8*64,1735030677000
NMEA,$GLGSV,2,1,06,65,60,315,43,66,11,331,33,72,53,167,42,74,22,036,26*63,1735030677000
NMEA,$GLGSV,2,2,06,75,59,338,45,76,28,254,35*6A,1735030677000
NMEA,$GAGSV,4,1,12,107,41,128,37,119,32,318,40,121,49,223,44,127,73,040,44*6C,1735030677000
NMEA,$GAGSV,4,2,12,129,79,343,47,130,20,042,27*6D,1735030677000
NMEA,$GAGSV,4,3,12,107,41,128,39,119,32,318,27,121,49,223,35,127,73,040,35,1*7C,1735030677000
NMEA,$GAGSV,4,4,12,129,79,343,35,130,20,042,25,1*71,1735030677000
NMEA,$BDGSV,4,1,15,202,24,117,32,205,48,139,36,207,34,065,36,209,19,079,35*63,1735030677000
NMEA,$BDGSV,4,2,15,210,43,077,32,214,44,302,42,221,40,175,48,224,39,267,40*6C,1735030677000
NMEA,$BDGSV,4,3,15,226,66,355,48,233,28,313,40,235,15,119,30*65,1735030677000
NMEA,$BDGSV,4,4,15,221,40,175,43,224,39,267,34,226,66,355,32,233,28,313,37,5*77,1735030677000
NMEA,$GPGSA,A,3,05,07,13,15,17,19,20,,,,,,0.8,0.4,0.6*30,1735030677000
NMEA,$GNGSA,A,3,65,66,72,74,75,76,,,,,,,0.8,0.4,0.6*20,1735030677000
NMEA,$GAGSA,A,3,119,127,129,,,,,,,,,,0.8,0.4,0.6*1E,1735030677000
NMEA,$BDGSA,A,3,202,207,209,210,214,224,226,235,,,,,0.8,0.4,0.6*25,1735030677000
NMEA,$PSSGR,GSA,A,3,14,30,,,,,,,,,,,0.8,0.4,0.6,1,8*49,1735030677000
NMEA,$PSSGR,GSA,A,3,107,121,130,,,,,,,,,,0.8,0.4,0.6,3,1*72,1735030677000
NMEA,$PSSGR,GSA,A,3,221,,,,,,,,,,,,0.8,0.4,0.6,4,5*76,1735030677000
NMEA,$GPRMC,085757.000,A,3206.2151,N,03512.4140,E,1.8,304.5,241224,,,A*6A,1735030677000
NMEA,$PSAMCLK,2346,20509500,30,334179,183854,205095000*73,1735030677000
NMEA,$GPGGA,085758.000,3206.2155,N,03512.4132,E,1,30,0.4,651.7,M,16.9,M,,*52,1735030678000
NMEA,$PSAMSA,085758.000,3206.2155,N,03512.4132,E,0,M,,*6B,1735030678000
NMEA,$GPGLL,3206.2155,N,03512.4132,E,085758.000,A,A*5B,1735030678000
NMEA,$GPVTG,304.0,T,,M,1.5,N,2.8,K,A*04,1735030678000
NMEA,$GPGSV,4,1,11,05,33,266,39,07,25,072,38,13,46,322,47,14,83,019,46*7B,1735030678000
NMEA,$GPGSV,4,2,11,15,13,317,38,17,29,146,42,19,11,171,37,20,24,228,34*7F,1735030678000
NMEA,$GPGSV,4,3,11,30,53,043,41*49,1735030678000
NMEA,$GPGSV,4,4,11,14,83,019,38,30,53,043,34,8*65,1735030678000
NMEA,$GLGSV,2,1,06,65,60,315,43,66,11,331,33,72,53,167,42,74,22,036,26*63,1735030678000
NMEA,$GLGSV,2,2,06,75,59,338,46,76,28,254,34*68,1735030678000
NMEA,$GAGSV,4,1,12,107,41,128,37,119,32,318,40,121,49,223,43,127,73,040,44*6B,1735030678000
NMEA,$GAGSV,4,2,12,129,79,343,47,130,20,042,27*6D,1735030678000
NMEA,$GAGSV,4,3,12,107,41,128,39,119,32,318,26,121,49,223,35,127,73,040,35,1*7D,1735030678000
NMEA,$GAGSV,4,4,12,129,79,343,36,130,20,042,25,1*72,1735030678000
NMEA,$BDGSV,4,1,15,202,24,117,32,205,48,139,36,207,34,065,36,209,19,079,34*62,1735030678000
NMEA,$BDGSV,4,2,15,210,43,077,32,214,44,302,42,221,40,175,47,224,39,267,40*63,1735030678000
NMEA,$BDGSV,4,3,15,226,66,355,48,233,28,313,40,235,15,119,31*64,1735030678000
NMEA,$BDGSV,4,4,15,221,40,175,43,224,39,267,33,226,66,355,33,233,28,313,36,5*70,1735030678000
NMEA,$GPGSA,A,3,05,07,13,15,17,19,20,,,,,,0.8,0.4,0.6*30,1735030678000
NMEA,$GNGSA,A,3,65,66,72,74,75,76,,,,,,,0.8,0.4,0.6*20,1735030678000
NMEA,$GAGSA,A,3,119,127,129,,,,,,,,,,0.8,0.4,0.6*1E,1735030678000
NMEA,$BDGSA,A,3,202,207,209,210,214,224,226,235,,,,,0.8,0.4,0.6*25,1735030678000
NMEA,$PSSGR,GSA,A,3,14,30,,,,,,,,,,,0.8,0.4,0.6,1,8*49,1735030678000
NMEA,$PSSGR,GSA,A,3,107,121,130,,,,,,,,,,0.8,0.4,0.6,3,1*72,1735030678000
NMEA,$PSSGR,GSA,A,3,221,,,,,,,,,,,,0.8,0.4,0.6,4,5*76,1735030678000
NMEA,$GPRMC,085758.000,A,3206.2155,N,03512.4132,E,1.5,304.0,241224,,,A*6C,1735030678000
NMEA,$PSAMCLK,2346,20509600,30,334361,185976,205096000*7F,1735030678000
NMEA,$GPGGA,085759.000,3206.2159,N,03512.4125,E,1,30,0.4,651.5,M,16.9,M,,*5B,1735030679000
NMEA,$PSAMSA,085759.000,3206.2159,N,03512.4125,E,0,M,,*60,1735030679000
NMEA,$GPGLL,3206.2159,N,03512.4125,E,085759.000,A,A*50,1735030679000
NMEA,$GPVTG,296.4,T,,M,1.9,N,3.5,K,A*0A,1735030679000
NMEA,$GPGSV,4,1,11,05,33,266,39,07,25,072,38,13,46,322,47,14,83,019,46*7B,1735030679000
NMEA,$GPGSV,4,2,11,15,13,317,37,17,29,146,42,19,11,171,37,20,24,228,34*70,1735030679000
NMEA,$GPGSV,4,3,11,30,53,043,41*49,1735030679000
NMEA,$GPGSV,4,4,11,14,83,019,40,30,53,043,34,8*6A,1735030679000
NMEA,$GLGSV,2,1,06,65,60,315,43,66,11,331,33,72,53,167,42,74,22,036,26*63,1735030679000
NMEA,$GLGSV,2,2,06,75,59,338,46,76,28,254,34*68,1735030679000
NMEA,$GAGSV,4,1,12,107,41,128,37,119,32,318,39,121,49,223,42,127,73,040,44*64,1735030679000
NMEA,$GAGSV,4,2,12,129,79,343,46,130,20,042,28*63,1735030679000
NMEA,$GAGSV,4,3,12,107,41,128,39,119,32,318,26,121,49,223,35,127,73,040,34,1*7C,1735030679000
NMEA,$GAGSV,4,4,12,129,79,343,36,130,20,042,25,1*72,1735030679000
NMEA,$BDGSV,4,1,15,202,24,117,32,205,48,139,36,207,34,065,36,209,19,079,34*62,1735030679000
NMEA,$BDGSV,4,2,15,210,43,077,32,214,44,302,42,221,40,175,47,224,39,267,40*63,1735030679000
NMEA,$BDGSV,4,3,15,226,66,355,48,233,28,313,40,235,15,119,33*66,1735030679000
NMEA,$BDGSV,4,4,15,221,40,175,43,224,39,267,33,226,66,355,35,233,28,313,35,5*75,1735030679000
NMEA,$GPGSA,A,3,05,07,13,15,17,19,20,,,,,,0.8,0.4,0.6*30,1735030679000
NMEA,$GNGSA,A,3,65,66,72,74,75,76,,,,,,,0.8,0.4,0.6*20,1735030679000
NMEA,$GAGSA,A,3,119,121,127,129,,,,,,,,,0.8,0.4,0.6*2C,1735030679000
NMEA,$BDGSA,A,3,202,207,209,210,214,221,224,226,235,,,,0.8,0.4,0.6*14,1735030679000
NMEA,$PSSGR,GSA,A,3,14,30,,,,,,,,,,,0.8,0.4,0.6,1,8*49,1735030679000
NMEA,$PSSGR,GSA,A,3,107,130,,,,,,,,,,,0.8,0.4,0.6,3,1*40,1735030679000
NMEA,$GPRMC,085759.000,A,3206.2159,N,03512.4125,E,1.9,296.4,241224,,,A*65,1735030679000
NMEA,$PSAMCLK,2346,20509700,30,334486,188099,205097000*74,1735030679000
NMEA,$GPGGA,085800.000,3206.2162,N,03512.4118,E,1,30,0.4,652.0,M,16.9,M,,*58,1735030680000
NMEA,$PSAMSA,085800.000,3206.2162,N,03512.4118,E,0,M,,*65,1735030680000
NMEA,$GPGLL,3206.2162,N,03512.4118,E,085800.000,A,A*55,1735030680000
NMEA,$GPVTG,291.9,T,,M,1.6,N,3.0,K,A*0A,1735030680000
NMEA,$GPGSV,4,1,11,05,33,266,39,07,25,072,38,13,46,322,47,14,83,019,46*7B,1735030680000
NMEA,$GPGSV,4,2,11,15,13,317,35,17,29,146,42,19,11,171,36,20,24,228,34*73,1735030680000
NMEA,$GPGSV,4,3,11,30,53,043,42*4A,1735030680000
NMEA,$GPGSV,4,4,11,14,83,019,39,30,53,043,35,8*65,1735030680000
NMEA,$GLGSV,2,1,06,65,60,315,43,66,11,331,33,72,53,167,42,74,22,036,27*62,1735030680000
NMEA,$GLGSV,2,2,06,75,59,338,46,76,28,254,34*68,1735030680000
NMEA,$GAGSV,4,1,12,107,41,128,37,119,32,318,39,121,49,223,41,127,73,040,44*67,1735030680000
NMEA,$GAGSV,4,2,12,129,79,343,46,130,20,042,28*63,1735030680000
NMEA,$GAGSV,4,3,12,107,41,128,39,119,32,318,25,121,49,223,35,127,73,040,34,1*7F,1735030680000
NMEA,$GAGSV,4,4,12,129,79,343,36,130,20,042,25,1*72,1735030680000
NMEA,$BDGSV,4,1,16,202,24,117,33,205,48,139,36,207,34,065,36,209,19,079,34*60,1735030680000
NMEA,$BDGSV,4,2,16,210,43,077,32,214,44,302,43,221,40,175,46,224,39,268,40*6F,1735030680000
NMEA,$BDGSV,4,3,16,226,66,355,48,233,28,313,40,235,15,119,33*65,1735030680000
NMEA,$BDGSV,4,4,16,221,40,175,41,224,39,268,33,226,66,355,35,233,28,313,34,5*7A,1735030680000
NMEA,$GPGSA,A,3,05,07,13,15,17,19,20,,,,,,0.8,0.4,0.6*30,1735030680000
NMEA,$GNGSA,A,3,65,66,72,74,75,76,,,,,,,0.8,0.4,0.6*20,1735030680000
NMEA,$GAGSA,A,3,119,127,129,,,,,,,,,,0.8,0.4,0.6*1E,1735030680000
NMEA,$BDGSA,A,3,202,207,209,210,214,221,224,226,235,,,,0.8,0.4,0.6*14,1735030680000
NMEA,$PSSGR,GSA,A,3,14,30,,,,,,,,,,,0.8,0.4,0.6,1,8*49,1735030680000
NMEA,$PSSGR,GSA,A,3,107,121,130,,,,,,,,,,0.8,0.4,0.6,3,1*72,1735030680000
NMEA,$GPRMC,085800.000,A,3206.2162,N,03512.4118,E,1.6,291.9,241224,,,A*65,1735030680000
NMEA,$PSAMCLK,2346,20509800,30,334532,190223,205098000*70,1735030680000
NMEA,$GPGGA,085801.000,3206.2163,N,03512.4114,E,1,28,0.4,652.0,M,16.9,M,,*5D,1735030681000
NMEA,$PSAMSA,085801.000,3206.2163,N,03512.4114,E,0,M,,*69,1735030681000
NMEA,$GPGLL,3206.2163,N,03512.4114,E,085801.000,A,A*59,1735030681000
NMEA,$GPVTG,292.6,T,,M,1.6,N,2.9,K,A*0E,1735030681000
NMEA,$GPGSV,4,1,11,05,33,266,38,07,25,072,38,13,46,322,47,14,83,019,46*7A,1735030681000
NMEA,$GPGSV,4,2,11,15,14,317,34,17,29,146,41,19,11,171,36,20,24,228,34*76,1735030681000
NMEA,$GPGSV,4,3,11,30,53,043,42*4A,1735030681000
NMEA,$GPGSV,4,4,11,14,83,019,39,30,53,043,35,8*65,1735030681000
NMEA,$GLGSV,2,1,06,65,60,315,43,66,11,331,33,72,53,167,42,74,22,036,27*62,1735030681000
NMEA,$GLGSV,2,2,06,75,59,338,46,76,28,254,33*6F,1735030681000
NMEA,$GAGSV,4,1,12,107,41,128,37,119,32,318,38,121,49,223,41,127,73,040,44*66,1735030681000
NMEA,$GAGSV,4,2,12,129,79,343,46,130,20,042,29*62,1735030681000
NMEA,$GAGSV,4,3,12,107,41,128,38,119,32,318,25,121,49,223,34,127,73,040,34,1*7F,1735030681000
NMEA,$GAGSV,4,4,12,129,79,343,36,130,20,042,25,1*72,1735030681000
NMEA,$BDGSV,5,1,16,202,24,117,33,205,48,139,36,207,34,065,36,209,19,079,34*61,1735030681000
