     4.01           OBSERVATION DATA    M                   RINEX VERSION / TYPE
GnssLogger          samsung 14          20241229 084918 UTC PGM / RUN BY / DATE
Google GnssLogger                                           MARKER NAME
Unknown                                                     MARKER NUMBER
Unknown             Unknown                                 OBSERVER / AGENCY
Unknown             GnssLogger          v3.1.0.3            REC # / TYPE / VERS
Unknown             Unknown                                 ANT # / TYPE
        0.0000        0.0000        0.0000                  ANTENNA: DELTA H/E/N
G    8 C1C L1C D1C S1C C5Q L5Q D5Q S5Q                      SYS / # / OBS TYPES
R    4 C1C L1C D1C S1C                                      SYS / # / OBS TYPES
C    8 C2I L2I D2I S2I C5P L5P D5P S5P                      SYS / # / OBS TYPES
E    8 C1C L1C D1C S1C C5Q L5Q D5Q S5Q                      SYS / # / OBS TYPES
  2024    12    29    08    49   18.0000000     GPS         TIME OF FIRST OBS
 6 R05  1 R06 -4 R07  5 R09 -2 R15  0 R16 -1                GLONASS SLOT / FRQ #
samsung SM-S711B (Android 14) HW Year: 2021 HW Model:       COMMENT
S.LSI,K401,SPOTNAV_4.6.2_7_E21a                             COMMENT
                                                            END OF HEADER
> 2024 12 29 08 49 18.0000000  0 23                      
G13  20928996.85707    280170.78307     -1099.35907        43.20007                                                                
G15  23335493.57427    383808.09927       127.93427        43.80027                                                                
G19  24137540.62806    381757.97706        63.59706        38.80006                                                                
G30  21398431.07427    189945.98727     -4137.35627        43.80027  21398446.06416     13924.75016     -3089.02216        41.20016
G05  22697607.77325    371403.57225     -4642.14625        30.30025                                                                
G20  23380213.91524   2459913.58724     -5835.13624        28.70024                                                                
G22  20351815.43126   3025520.36626     -2851.36126        36.20026                                                                
G14  20230600.94627    267217.98827     -3898.14027        41.80027  20230602.74516    203351.62916     -2913.61616        40.30016
G07  23497211.51924   2688323.27124     -4962.79724        27.90024                                                                
G17  22145867.03524    392020.26424      -761.78324        23.70024                                                                
E24  23901901.65807    186296.15707     -4264.57407        45.60007  23901912.75016    195472.38516     -3184.68016        38.30016
R15  22370853.78007-119622719.47107     -6330.10007        45.60007
R16  19877178.31607-106259951.17407     -4215.95307        44.70007
E05  21806928.27806    438955.26006     -2929.57106        41.00006  21806943.56726    320745.19926     -2187.22126        36.70026
C10  38025571.64507    328140.02007     -2864.22707        42.40007
R07  23071991.29327-123585975.71827       758.49227        41.80027
R06  19760316.51825-105524384.26825     -1873.42825        34.40025
E16  23292635.84426    226350.06326     -2917.98626        38.40026                                                                
R09  21702641.27425-115970497.27825     -1251.90125        30.50025
R05  20666412.84025-110553508.74225     -6663.88325        32.60025
E25  24166431.02824    677480.49524     -1729.53824        26.00024                                                                
C37  26427883.65723    555003.29223      -989.51423        23.20023
E03  25828471.12227    345301.39927      -871.29827        43.50027  25828486.11117  -1820729.27617      -650.84117        41.50017
> 2024 12 29 08 49 19.0000000  0 24                      
G19  24136906.56707    381821.21707        64.30707        45.40007                                                                
G13  20928581.34507    279071.35407     -1098.60107        44.00007                                                                
G30  21398602.25617    185808.21817     -4137.41917        43.20017  21398610.05106     10834.83806     -3089.62906        40.40006
G15  23334857.11517    383937.62517       130.40217        43.70017                                                                
G14  20230713.36926    263318.96326     -3898.74426        41.10026  20230723.56206    200439.11706     -2912.13106        40.10006
G20  23380702.87625   2454077.20325     -5836.23825        30.40025                                                                
G05  22697863.19625    366759.17425     -4643.93725        30.20025                                                                
G22  20351738.08525   3022670.01625     -2849.83625        34.90025                                                                
G07  23497566.47324   2683360.25724     -4962.69424        27.60024                                                                
G17  22145367.88124    391259.33024      -760.79824        23.80024                                                                
E24  23902089.02807    182031.70807     -4264.12307        46.20007  23902099.22126    192292.01726     -3178.05426        37.10026
R16  19877345.60007-106264171.00907     -4215.70407        45.30007
R15  22371417.69007-119629060.22907     -6329.02007        46.00007
E05  21806863.82207    436025.72207     -2929.26907        42.20007  21806877.31316    318557.73916     -2187.20516        36.60016
R07  23071229.82017-123585233.52417       758.08617        41.70017
C10  38025495.19707    325276.14007     -2863.34107        42.20007
R06  19760037.41125-105526217.48025     -1867.94125        34.20025
E16  23292574.98626    223433.71326     -2916.56026        37.30026                                                                
R09  21702225.46225-115971602.86825     -1251.08825        30.40025
R05  20667007.32925-110560014.64125     -6667.56925        31.90025
E25  24166145.32624    675757.14924     -1720.65824        26.00024                                                                
E31  27156456.07724   3117155.90924     -5842.02724        24.00024                                                                
C37  26427441.76323    554016.61123      -984.25323        23.20023
E03  25828010.34117    344429.83817      -870.43117        43.10017  25828029.82706  -1821379.49006      -649.50406        40.90006
> 2024 12 29 08 49 20.0000000  0 24                      
G19  24136292.59207    381880.88607        57.63307        46.30007                                                                
G30  21398784.23007    181666.22507     -4144.09707        45.20007  21398793.82306      7741.96106     -3094.35306        39.60006
G13  20928187.71707    277967.83907     -1105.80707        44.30007                                                                
G15  23334229.64907    384062.10507       121.95707        43.60007                                                                
G14  20230855.77026    259412.67526     -3909.91126        40.60026  20230862.96506    197523.00506     -2917.90706        40.00006
G20  23381202.93025   2448236.33625     -5843.09725        35.00025                                                                
G05  22698135.70825    362108.24325     -4654.18725        30.10025                                                                
G22  20351714.10225   3019813.76625     -2859.19425        33.80025                                                                
G07  23497907.03724   2678392.99124     -4969.38224        27.40024                                                                
G17  22144914.29524    390495.33624      -765.52224        23.80024                                                                
R07  23070486.33508-123584488.26408       751.17708        47.50008
R16  19877530.87207-106268388.55107     -4222.75407        46.70007
E24  23902296.18507    177763.04607     -4270.75907        46.70007  23902307.57726    189105.98426     -3188.85926        36.80026
R15  22371990.89307-119635353.58307     -6336.05907        46.00007
E05  21806819.45307    433092.00607     -2935.79907        43.10007  21806829.64606    316366.98506     -2192.39606        36.20006
C10  38025442.13407    322408.06507     -2870.16707        42.00007
E03  25827561.85107    343554.62307      -877.29007        42.80007  25827590.33106  -1822032.98806      -655.13906        40.40006
R06  19759772.39415-105528028.54715     -1882.20315        34.10015
E16  23292530.31726    220515.36326     -2919.34326        36.20026                                                                
R09  21701836.03225-115972750.48525     -1256.07425        30.30025
R05  20667639.59125-110566625.32425     -6682.00925        31.30025
E25  24165865.91924    674031.29724     -1727.10224        26.00024  24165841.63623   2002331.12223     -1274.84123        18.90023
E31  27156946.53724   3111310.72524     -5845.17224        24.90024                                                                
C37  26427044.53823    553027.86123      -989.78323        23.10023
> 2024 12 29 08 49 21.0000000  0 23                      
G30  21398950.01507    177520.12107     -4148.15107        46.60007  21398959.90806      4645.80306     -3097.79306        39.30006
G19  24135658.53107    381936.50107        53.58807        46.40007                                                                
G13  20927777.00107    276860.10507     -1109.84107        44.60007                                                                
G15  23333588.09307    384182.48307       118.32707        43.50007                                                                
G14  20230977.78616    255503.02916     -3911.31716        40.20016  20230984.38106    194603.62806     -2921.00206        39.90006
G20  23381694.29015   2442390.34415     -5848.54315        35.00015                                                                
G05  22698387.23425    357450.59425     -4660.99825        30.10025                                                                
G22  20351616.96925   3016951.15825     -2865.78125        32.80025                                                                
G17  22144432.52824    389723.44224      -775.84424        23.70024                                                                
R16  19877699.35508-106272614.50308     -4227.20108        47.90008
R07  23069720.36507-123583720.79507       746.95107        47.40007
R15  22372553.90307-119641689.75607     -6339.55507        45.90007
E05  21806752.89907    430153.96207     -2940.20207        43.60007  21806767.28906    314172.90106     -2195.74506        35.80006
C10  38025372.88207    319536.01207     -2874.03607        41.90007
R06  19759514.57305-105529974.75905     -1884.60405        33.90005
E16  23292458.96625    217593.44625     -2923.69625        35.40025                                                                
R09  21701477.18025-115974158.64725     -1265.19625        30.20025
R05  20668281.44625-110573385.15625     -6681.97925        30.80025
E25  24165568.82524    672295.41024     -1740.90124        25.90024                                                                
C37  26426592.15123    552036.46823      -992.71223        23.00023
E03  25827108.86526    342678.51826      -876.54826        41.40026  25827135.24606  -1822689.50106      -658.01906        40.40006
E31  27157450.78824   3105459.90524     -5853.62624        24.90024                                                                
E24  23902488.35208    173490.00808     -4275.21708        47.50008  23902496.74626    185914.62526     -3194.01626        36.60026
> 2024 12 29 08 49 22.0000000  0 23                      
G30  21399136.78607    173371.11707     -4150.44507        47.10007  21399145.48006      1547.35506     -3099.58706        39.10006
G19  24135043.95707    381989.69707        51.98707        46.40007                                                                
G13  20927381.87507    275749.35407     -1112.25707        45.30007                                                                
G15  23332963.92507    384299.96907       116.04107        43.40007                                                                
G14  20231111.19306    251590.69206     -3913.67406        39.80006  20231125.28306    191681.92906     -2922.85506        40.40006
G20  23382208.43405   2436541.83105     -5849.76105        34.90005                                                                
G05  22698660.94425    352789.81125     -4662.34225        30.10025                                                                
G22  20351562.10725   3014080.58325     -2874.55325        31.90025                                                                
G17  22143960.95524    388944.37224      -782.65524        23.60024                                                                
R16  19877887.02508-106276846.56308     -4229.63408        48.90008
R07  23068978.97807-123582987.02407       744.78307        47.20007
R15  22373144.19507-119648073.32807     -6341.94707        45.80007
E05  21806711.52807    427212.83907     -2942.65707        44.00007  21806722.32006    311976.60806     -2197.39206        35.60006
C10  38025325.51507    316660.87407     -2876.67607        41.80007
E03  25826682.86016    341798.76116      -882.33216        40.60016  25826698.14916  -1823348.02816      -659.53316        39.90016
R06  19759256.45105-105531821.71105     -1888.49405        33.80005
E16  23292408.90125    214666.57425     -2929.34225        34.70025                                                                
R09  21701078.45625-115975257.35825     -1265.91225        30.10025
R05  20668927.79925-110580070.79525     -6685.54425        30.50025
E25  24165281.92324    670549.98624     -1750.18924        25.80024                                                                
E31  27157931.35524   3099603.45224     -5859.25724        24.70024                                                                
C37  26426186.23223    551042.87923      -994.68623        22.90023
E24  23902700.90408    169214.00808     -4277.47208        48.10008  23902707.80026    182720.86026     -3194.96126        36.50026
> 2024 12 29 08 49 23.0000000  0 24                      
G30  21399299.57308    169224.44208     -4145.50208        47.60008  21399312.16406     -1549.12706     -3095.49106        39.00006
G13  20926969.66007    274640.59707     -1107.75707        46.20007                                                                
G19  24134406.29807    382045.47707        57.07207        46.30007                                                                
G15  23332317.27307    384419.67007       120.80807        44.00007                                                                
G14  20231237.70626    247680.08726     -3909.73226        39.40026  20231247.29906    188761.62106     -2919.60606        40.50006
G20  23382700.69305   2430695.58805     -5845.09505        35.10005                                                                
G05  22698922.96325    348133.58725     -4653.93425        30.00025                                                                
G22  20351463.17525   3011220.54325     -2854.76725        31.20025                                                                
G17  22143495.07724    388172.11424      -768.85224        23.60024                                                                
R16  19878056.40808-106281077.09508     -4224.70908        49.30008
E24  23902893.07108    164940.15808     -4272.76608        48.10008  23902899.66726    179530.32826     -3188.91026        36.50026
R15  22373706.30507-119654404.91007     -6336.65107        46.10007
R07  23068214.80707-123582229.51207       749.72007        46.90007
E05  21806641.67627    424273.07827     -2939.07427        44.00027  21806659.66406    309781.64706     -2194.29106        35.50006
C10  38025250.86707    313788.29707     -2871.29007        41.70007
E03  25826228.37406    340919.37406      -878.95006        40.50006  25826242.46416  -1824004.91916      -656.07216        38.30016
R06  19758989.03705-105533717.53105     -1883.92605        33.70005
E16  23292343.24625    211742.84625     -2922.15225        34.20025                                                                
R09  21700691.12425-115976514.22925     -1262.36025        30.00025
R05  20669553.46625-110586744.19725     -6679.22225        30.20025
E09  25502189.00224   3614857.95324     -5306.66124        25.80024                                                                
E25  24164977.03524    668809.55024     -1737.93724        25.80024                                                                
E31  27158458.39024   3093747.54024     -5855.63024        24.50024                                                                
C37  26425762.62523    550048.21623      -995.19723        22.90023
> 2024 12 29 08 49 24.0000000  0 23                      
G30  21399480.94808    165080.52408     -4142.53208        47.70008  21399496.83706     -4643.62706     -3093.50406        38.90006
G13  20926572.13607    273533.73207     -1105.91807        46.30007                                                                
G19  24133793.52207    382104.39007        60.47907        46.20007                                                                
G15  23331687.10907    384541.79907       123.34207        44.80007                                                                
G14  20231370.51416    243770.85216     -3908.54216        39.00016  20231386.70206    185843.03106     -2917.72606        40.50006
G20  23383211.53906   2424852.26706     -5841.84906        35.50006                                                                
G22  20351404.41625   3008363.94325     -2854.87325        31.90025                                                                
G05  22699199.07125    343481.85025     -4649.48325        30.00025                                                                
G17  22143036.69524    387407.35924      -761.00124        24.40024                                                                
R16  19878238.98208-106285281.64008     -4222.19108        49.20008
R15  22374287.30307-119660738.78407     -6333.07507        46.90007
E24  23903097.23008    160668.76008     -4270.16408        48.00008  23903106.82326    176341.39426     -3188.12926        36.20026
R07  23067477.31807-123581517.18707       752.71807        46.70007
E05  21806603.00317    421335.60317     -2935.57617        43.90017  21806613.49606    307588.44206     -2192.32306        39.00006
C10  38025199.00307    310918.43907     -2868.49307        41.60007
R06  19758742.90705-105535629.38205     -1882.15105        33.90005
E16  23292297.67825    208819.85025     -2922.62425        33.90025                                                                
R09  21700316.38425-115977740.53725     -1255.35625        29.90025
R05  20670220.20425-110593539.97525     -6677.04825        30.00025
E25  24164704.82324    667076.38024     -1729.53524        25.80024                                                                
E31  27158951.24924   3087897.30524     -5847.38424        24.40024                                                                
C37  26425345.91423    549052.05823      -996.90323        23.30023
E03  25825786.18026    340042.33126      -875.86926        40.30026  25825806.26606  -1824660.58506      -655.05206        38.10006
> 2024 12 29 08 49 25.0000000  0 23                      
G30  21399648.83108    160930.18008     -4153.54708        47.70008  21399663.52106     -7742.28306     -3100.72706        38.90006
G13  20926161.12027    272421.42727     -1115.77227        46.30027                                                                
G19  24133162.75907    382158.94807        52.38007        46.10007                                                                
G15  23331037.15907    384658.04107       114.04807        44.80007                                                                
G14  20231495.82706    239854.69906     -3919.60406        39.00006  20231507.81907    182919.32107     -2926.26307        42.30007
G20  23383703.19906   2419004.01706     -5850.70206        35.90006                                                                
G22  20351324.07225   3005499.39425     -2868.51825        32.90025                                                                
G05  22699490.47025    338825.19825     -4659.10125        29.90025                                                                
G17  22142569.31824    386639.14124      -769.94924        24.70024                                                                
R16  19878410.16318-106289522.11718     -4232.84418        49.10018
R15  22374850.31307-119667074.95807     -6341.65407        47.40007
E24  23903289.09708    156391.05208     -4280.85408        47.80008  23903298.69126    173148.71926     -3194.53826        36.10026
R07  23066711.04807-123580749.71807       742.13007        46.50007
C10  38025125.85307    308042.39207     -2879.13607        41.50007
E16  23292227.82615    205890.89315     -2932.68115        33.80015                                                                
E03  25825339.48926    339157.42326      -888.83926        40.00026  25825351.78116  -1825322.60316      -665.19316        37.60016
R06  19758461.40225-105537449.61425     -1894.20825        33.90025
R09  21699944.34125-115979079.17225     -1269.62525        29.80025
R05  20670821.88825-110600084.11725     -6688.78125        29.90025
E25  24164420.02024    665341.11124     -1736.31424        26.20024                                                                
E31  27159458.49824   3082043.93624     -5854.92424        24.30024                                                                
C37  26424909.41623    548052.39623     -1001.41323        23.40023
E05  21806543.04407    418391.81807     -2947.18407        43.80007  21806551.43906    305390.07506     -2200.94206        38.50006
> 2024 12 29 08 49 26.0000001  0 23                      
G30  21399849.39328    156774.04928     -4159.01528        47.70028  21399861.68406    -10845.72606     -3105.83106        38.90006
G13  20925781.28317    271302.21917     -1122.40717        46.20017                                                                
G15  23330420.48607    384767.01207       105.08607        44.70007                                                                
G14  20231649.62016    235932.77716     -3924.79716        39.20016  20231661.01307    179990.27907     -2931.70307        42.10007
G19  24132555.38007    382208.24107        46.66107        45.20007                                                                
G22  20351274.30615   3002625.28015     -2878.88915        34.90015                                                                
G20  23384208.94926   2413150.14826     -5856.66526        35.80026                                                                
G05  22699785.76525    334157.03425     -4673.90825        29.70025                                                                
G17  22142100.44324    385859.69924      -785.05124        24.70024                                                                
R15  22375446.30108-119673428.71808     -6348.94508        48.00008
R16  19878613.72218-106293776.35218     -4241.17518        48.90018
E24  23903515.14108    152105.77208     -4288.30708        47.60008  23903521.13726    169949.90926     -3201.87126        36.00026
E05  21806504.67107    415441.11007     -2954.16207        43.80007  21806520.26006    303186.37106     -2206.36906        38.00006
E16  23292194.84907    202954.05007     -2940.52907        42.00007                                                                
C10  38025088.97906    305160.08206     -2885.43506        41.40006
E03  25824916.18326    338264.40026      -896.32926        39.70026  25824930.57326  -1825990.90926      -671.44826        37.50026
R07  23065983.45217-123580028.20517       732.23117        45.50017
R06  19758234.45925-105539403.46225     -1902.61725        33.90025
R09  21699574.99725-115980272.63125     -1271.50825        29.80025
R05  20671494.92225-110606851.59925     -6692.97925        29.70025
E25  24164151.70624    663595.32024     -1751.04724        26.70024                                                                
E31  27159970.24424   3076182.67724     -5865.19124        24.20024                                                                
C37  26424500.19924    547042.68824     -1014.72824        23.50024
> 2024 12 29 08 49 27.0000000  0 23                      
G30  21400006.18418    152609.63118     -4168.55518        47.60018  21400019.67506    -13955.02406     -3112.21806        39.00006
G13  20925363.97207    270174.35707     -1132.18607        46.20007                                                                
G15  23329774.43327    384870.06427        99.34227        44.70027                                                                
G14  20231762.34206    232001.69606     -3935.65406        39.60006  20231774.63407    177055.23007     -2938.04607        41.70007
G22  20351188.26606   2999742.38906     -2887.27406        37.40006                                                                
G19  24131915.92207    382249.58807        37.37407        44.00007                                                                
G05  22700039.69025    329482.36225     -4677.91925        29.60025                                                                
G07  23500189.65724   3918797.01124     -4988.75324        25.70024                                                                
G17  22141648.95524    385071.26724      -792.92724        24.60024                                                                
R15  22376000.31718-119679777.88618     -6357.84418        48.20018
R16  19878772.31208-106298012.23808     -4250.32408        48.70008
E24  23903695.01607    147813.42407     -4296.12407        47.40007  23903703.71026    166745.03326     -3207.90326        35.90026
E05  21806435.11927    412481.91927     -2963.42827        43.80027  21806449.20916    300976.78216     -2212.52616        37.60016
E16  23292120.20107    200008.63907     -2949.69007        42.40007                                                                
C10  38025007.13526    302269.99526     -2893.97026        41.30026
R07  23065206.98917-123579268.39317       727.11817        44.30017
E03  25824456.30126    337365.69026      -901.80126        39.50026  25824468.29326  -1826664.80926      -676.69626        37.30026
R06  19757969.14325-105541372.57825     -1909.07925        33.80025
R09  21699191.86225-115981614.32225     -1285.78425        29.80025
R05  20672095.40625-110613453.10325     -6703.82025        29.60025
E25  24163872.00024    661840.78424     -1758.90524        27.00024                                                                
C37  26424064.30124    546029.72724     -1014.58624        24.30024
E31  27160445.41524   3070316.86924     -5868.07124        24.20024                                                                
> 2024 12 29 08 49 28.0000001  0 25                      
G30  21400208.24408    148441.62808     -4169.78508        47.60008  21400219.93606    -17067.19006     -3113.59306        39.30006
G13  20924987.73207    269042.80207     -1133.40007        46.20007                                                                
G15  23329157.76017    384967.97017        95.58317        45.00017                                                                
G14  20231918.53406    228066.81406     -3936.77406        39.90006  20231931.12607    174117.02307     -2939.78107        41.50007
G22  20351143.29706   2996855.02206     -2889.59906        38.40006                                                                
G19  24131329.52827    382287.03127        34.74127        42.80027                                                                
G05  22700334.38625    324799.13825     -4687.48925        29.60025                                                                
G20  23385198.56425   4105730.88325     -5862.52325        31.70025                                                                
G17  22141202.86424    384279.08024      -794.06224        24.80024                                                                
G07  23500540.41424   3913809.39624     -4987.60524        25.60024                                                                
R15  22376594.50608-119686120.94008     -6359.08108        48.10008
R16  19878971.67408-106302242.77208     -4250.20608        48.40008
E24  23903915.66407    143516.95107     -4298.52607        47.30007  23903928.25525    163537.18125     -3209.33325        35.20025
E05  21806407.23817    409518.52117     -2965.49417        43.80017  21806419.53006    298764.00006     -2214.37406        37.20006
E16  23292091.12107    197059.10307     -2951.59107        42.40007                                                                
R07  23064482.99107-123578565.26207       725.76407        43.80007
C10  38024968.16226    299375.59626     -2896.54926        41.30026
E03  25824027.59826    336464.68526      -902.15226        39.30026  25824050.68226  -1827340.14426      -676.05126        37.10026
R06  19757733.80625-105543279.85125     -1916.18325        33.70025
R09  21698830.61225-115982849.80325     -1292.44225        29.90025
R05  20672753.45125-110620137.97925     -6705.85625        29.50025
E25  24163585.39824    660082.81824     -1759.67724        27.00024  24163589.29523   2584197.93823     -1320.77523        22.80023
C37  26423668.87524    545012.46724     -1019.40824        24.60024
E31  27160957.76024   3064446.21524     -5873.06424        24.10024                                                                
C34  25078770.82823   3875725.80623     -1659.70123        21.70023
> 2024 12 29 08 49 28.9999998  0 25                      
G30  21400289.18808    144274.02808     -4167.39108        47.70008  21400300.28006    -20179.37506     -3112.18906        39.40006
G13  20924492.47517    267911.03017     -1131.87817        46.20017                                                                
G15  23328422.96907    385065.80807        97.80407        45.20007                                                                
G14  20231949.11306    224131.61206     -3935.35406        40.10006  20231967.10106    171178.32006     -2938.94406        41.40006
G22  20350981.40906   2993967.10906     -2888.18106        38.80006                                                                
G05  22700506.16726    320114.49526     -4685.34426        40.20026                                                                
G19  24130599.83327    382325.69827        39.52927        41.50027                                                                
G20  23385625.46825   4099864.99325     -5868.85925        30.90025                                                                
G17  22140609.27524    383488.89824      -789.17824        24.90024                                                                
G07  23500787.74324   3908822.75624     -4986.14124        25.40024                                                                
R15  22377075.37328-119692498.39828     -6362.25628        48.00028
R16  19879058.61408-106306513.81708     -4250.16808        48.20008
E24  23904026.88707    139220.29107     -4296.74507        47.10007  23904032.58325    160329.93025     -3206.94425        33.80025
E05  21806257.64207    406554.93607     -2963.67307        43.90007  21806271.13316    296550.78616     -2213.42616        36.90016
E16  23291935.22907    194108.99507     -2950.38807        42.40007                                                                
R09  21698357.54016-115984129.60016     -1290.99616        39.00016
R07  23063630.08127-123577814.64327       725.83427        43.40027
C10  38024813.46916    296481.96416     -2893.24216        41.20016
E03  25823490.07026    335561.62326      -904.08826        39.10026  25823509.55626  -1828013.63126      -672.56126        36.30026
R06  19757367.75925-105545129.85925     -1908.00025        33.60025
E25  24163201.36424    658322.12324     -1762.05724        28.00024  24163210.95724   2582875.32124     -1322.61424        28.30024
R05  20673317.06024-110626960.52924     -6699.70224        29.40024
C37  26423167.92124    543996.97424     -1014.60724        25.00024
E31  27161387.06324   3058577.85224     -5867.20624        24.10024                                                                
C34  25078367.90723   3874068.05023     -1657.75323        21.60023
> 2024 12 29 08 49 30.0000001  0 24                      
G30  21400571.29328    140101.74828     -4174.61228        47.70028  21400579.38716    -23293.43416     -3114.99016        39.30016
G13  20924195.08107    266775.43207     -1137.50907        46.10007                                                                
G15  23327895.03427    385159.81927        92.09727        45.20027                                                                
G05  22700886.00417    315427.03517     -4688.85717        41.90017                                                                
G14  20232190.74606    220193.10006     -3940.15806        40.30006  20232202.43806    168237.48706     -2941.89306        41.30006
G22  20351014.38606   2991076.14806     -2892.47906        39.20006                                                                
G19  24130070.70026    382362.13926        35.32826        40.60026                                                                
G20  23386229.55025   4093993.95525     -5871.02525        30.80025                                                                
G07  23501213.14924   3903832.20324     -4992.50124        25.30024                                                                
G17  22140251.62324    382696.09024      -794.12024        24.90024                                                                
R16  19879338.02108-106310755.05008     -4256.41208        47.90008
E24  23904329.97707    134920.75307     -4300.96807        47.00007  23904338.97025    157118.62925     -3213.31925        33.80025
E05  21806310.10607    403588.43007     -2967.96207        44.00007  21806321.79826    294335.89426     -2215.72726        36.70026
E16  23291983.49507    191156.16007     -2954.19307        42.50007                                                                
R09  21698086.82707-115985431.55007     -1293.73907        42.00007
C10  38024855.44016    293585.66016     -2897.63516        41.40016
R15  22377761.29827-119698912.55827     -6366.90127        47.00027
R07  23062995.12127-123577168.95527       715.03927        43.00027
E25  24163017.89116    656555.29516     -1769.14016        36.10016  24163032.88024   2581555.14924     -1318.94724        27.70024
E03  25823156.10126    334656.37426      -906.34026        38.80026  25823159.69926  -1828694.82026      -685.03926        36.00026
R06  19757220.56125-105547088.28625     -1919.51325        33.50025
R05  20674036.86224-110633558.97424     -6709.96024        29.40024
C37  26422838.45024    542980.26224     -1017.32024        25.50024
E31  27161995.94124   3052704.28424     -5876.15824        24.30024                                                                
> 2024 12 29 08 49 30.9999998  0 25                      
G30  21400651.33728    135924.84228     -4179.21028        47.70028  21400661.23106    -26411.19606     -3119.60706        39.50006
G13  20923695.02707    265634.63307     -1142.64707        46.00007                                                                
G15  23327171.63527    385248.42627        85.90427        45.10027                                                                
G05  22701070.07617    310734.91017     -4694.44917        41.80017                                                                
G14  20232229.11906    216249.90106     -3945.53406        40.50006  20232239.61206    165292.77606     -2946.64306        41.10006
G22  20350853.99706   2988179.59806     -2898.58906        39.70006                                                                
G19  24129352.09726    382393.77826        29.23726        39.90026                                                                
G20  23386621.97925   4088117.76525     -5878.75425        30.80025                                                                
G07  23501452.38324   3898834.64424     -5001.05124        25.50024                                                                
G17  22139669.12624    381898.39924      -800.13224        25.00024                                                                
E24  23904431.60607    130616.37607     -4306.78707        46.80007  23904442.99825    153903.12525     -3217.59925        33.30025
E05  21806163.80707    400616.96107     -2973.94507        44.30007  21806174.00026    292119.52026     -2217.11026        36.40026
R16  19879421.36327-106315006.99127     -4257.58827        46.40027
E16  23291836.29707    188198.27807     -2960.39807        43.10007                                                                
R09  21697641.03607-115986855.75907     -1299.76107        42.00007
C10  38024700.14827    290684.15427     -2904.10127        41.80027
R15  22378235.87027-119705256.37727     -6374.70527        46.10027
E25  24162647.04806    654783.65406     -1774.29506        39.70006  24162657.54024   2580233.07524     -1323.02224        27.90024
E03  25822615.27526    333747.25526      -911.05226        38.70026  25822622.17126  -1829375.68726      -680.70526        35.50026
R06  19756854.81425-105548939.82225     -1925.24525        33.30025
R07  23062174.88927-123576592.20527       716.07827        41.50027
R05  20674592.97725-110640340.98725     -6712.04225        29.50025
C37  26422293.42724    541957.04424     -1026.46924        25.60024
E31  27162393.16624   3046818.82924     -5891.38824        24.50024                                                                
C34  25077799.20123   3870750.99623     -1668.82223        20.90023
> 2024 12 29 08 49 31.9999999  0 26                      
G30  21400855.79628    131743.79628     -4183.10728        47.60028  21400863.89006    -29532.40006     -3122.91806        40.50006
G13  20923321.78617    264489.54617     -1148.22817        45.90017                                                                
G15  23326556.16127    385331.67227        80.56627        45.00027                                                                
G05  22701383.35917    306038.02017     -4699.26117        41.70017                                                                
G14  20232387.41006    212301.94406     -3950.32806        40.80006  20232398.80206    162344.47406     -2950.09106        41.00006
G22  20350812.02606   2985278.60306     -2903.46106        39.80006                                                                
G19  24128765.10426    382419.99926        23.51326        39.40026                                                                
G20  23387155.90925   4082239.20425     -5879.73425        31.80025                                                                
G07  23501830.42124   3893829.64524     -5008.70924        25.90024                                                                
G17  22139238.62424    381095.03724      -806.19424        25.30024                                                                
E24  23904658.54907    126306.94807     -4311.94407        46.70007  23904671.74025    150684.46625     -3220.23025        33.60025
E05  21806130.83007    397640.41207     -2979.08207        44.40007  21806148.51826    289896.95626     -2225.65426        36.20026
E16  23291806.31807    185235.37307     -2965.41007        43.10007                                                                
R16  19879629.11917-106319282.62317     -4263.91317        45.80017
R09  21697269.29307-115988036.22907     -1303.93607        42.00007
C10  38024664.47317    287777.38517     -2909.39417        41.80017
E25  24162391.32506    653006.93306     -1779.25506        41.10006  24162403.61615   2578906.28915     -1329.13815        29.80015
R15  22378834.25527-119711620.83727     -6374.21427        45.30027
E03  25822197.36526    332832.55226      -917.49326        38.50026  25822202.46125  -1830055.33525      -679.03725        34.60025
E09  25505657.60125   4491142.57425     -5338.22025        32.10025                                                                
R07  23061436.80026-123575814.77826       709.36726        40.00026
R06  19756640.76225-105550960.09525     -1930.16925        33.10025
R05  20675251.02225-110647026.62825     -6718.92625        30.10025
C37  26421916.58824    540924.64224     -1036.99324        26.30024
E31  27162931.89424   3040928.57424     -5892.64124        24.70024                                                                
C34  25077502.10723   3869079.76123     -1671.23123        21.00023
> 2024 12 29 08 49 32.9999999  0 26                      
G30  21401025.47828    127562.46528     -4181.46528        47.50028  21401036.87006    -32654.34306     -3122.30606        40.40006
G13  20922921.56307    263343.51607     -1146.25007        45.70007                                                                
G15  23325908.01027    385417.28927        86.80327        44.90027                                                                
G05  22701653.77217    301339.93817     -4698.66917        41.60017                                                                
G14  20232516.92006    208352.58806     -3950.04706        41.00006  20232526.51306    159395.21306     -2949.73506        40.80006
G22  20350740.97506   2982376.11706     -2903.22606        40.00006                                                                
G19  24128127.74526    382445.08326        24.51526        38.90026                                                                
G20  23387647.26925   4076355.45125     -5886.33725        32.40025                                                                
G07  23502160.19324   3888823.31124     -5006.99224        26.20024                                                                
G17  22138757.15724    380290.15724      -805.63924        25.70024                                                                
E24  23904857.61127    121995.76527     -4312.05227        46.50027  23904869.00426    147465.61726     -3218.93826        36.80026
E05  21806083.46327    394662.92327     -2977.95227        44.30027  21806091.55726    287674.56326     -2222.30426        36.50026
R16  19879802.69907-106323535.32107     -4264.14007        45.40007
E16  23291744.26107    182271.48907     -2964.36807        43.00007                                                                
E25  24162111.31807    651229.48907     -1777.80307        41.80007  24162120.01205   2577578.93505     -1327.63605        31.00005
R09  21696895.75217-115989365.68617     -1305.98217        41.90017
C10  38024599.41827    284869.94327     -2907.77427        41.70027                                                                
R15  22379403.56127-119717991.41527     -6373.13927        44.50027
E03  25821737.48326    331918.83426      -913.22426        38.30026  25821754.57125  -1830737.27325      -683.08125        33.90025
E09  25506049.72915   4485808.13415     -5331.31815        33.60015                                                                
C37  26421485.18625    539889.13325     -1037.05925        32.50025  26421502.87423   2634991.17923      -783.74323        22.30023
R06  19756361.65515-105552794.07015     -1928.17515        33.00015
R07  23060694.51326-123575173.68826       705.67626        38.80026
R05  20675875.78925-110653694.67725     -6719.37525        30.60025
E31  27163424.45324   3035038.99624     -5889.22824        24.90024                                                                
C34  25077218.20323   3867403.29123     -1679.08523        21.70023                                                                
> 2024 12 29 08 49 33.9999999  0 26                      
G30  21401195.16117    123383.84417     -4177.25817        47.30017  21401210.15106    -35775.12406     -3120.19506        40.30006
G13  20922514.14507    262199.22307     -1143.42207        45.60007                                                                
G05  22701923.88507    296643.57707     -4695.49107        41.80007                                                                
G14  20232645.83106    204404.34006     -3947.68706        41.40006  20232655.72416    156446.99616     -2947.68916        40.70016
G22  20350670.82406   2979474.68606     -2900.89706        40.20006                                                                
G15  23325274.84827    385503.77527        86.92027        44.00027                                                                
G19  24127508.37416    382472.73616        28.93716        38.50016                                                                
G20  23388153.01925   4070476.54125     -5876.47725        32.40025                                                                
G07  23502495.66124   3883822.48024     -4998.06924        26.20024                                                                
G17  22138284.98424    379487.15024      -802.06824        26.10024                                                                
E24  23905056.67417    117687.86117     -4307.00717        46.30017  23905066.56726    144249.19026     -3215.20926        36.40026
E05  21806025.00317    391686.63817     -2975.67717        44.30017  21806035.49616    285452.16716     -2222.39216        36.30016
R16  19879974.78007-106327781.90707     -4260.71807        45.10007
E16  23291688.20007    179308.95507     -2961.85407        43.00007                                                                
E25  24161820.82027    649454.92127     -1773.87527        41.80027  24161833.71106   2576252.57906     -1325.85406        36.20006
R09  21696508.42007-115990622.56207     -1301.37807        41.90007
C10  38024532.86417    281964.95917     -2903.74917        41.60017                                                                
R15  22379977.66427-119724385.69327     -6371.87127        43.80027
E03  25821282.99816    331006.98216      -910.91716        38.30016  25821303.08425  -1831417.02725      -678.66125        33.90025
E09  25506449.95206   4480475.46406     -5332.66006        36.20006  25506463.14325   3353802.14425     -3984.05525        29.90025
R05  20676514.34725-110660436.91725     -6716.36225        34.60025
C37  26421066.07725    538857.76625     -1029.29625        33.50025  26421078.66824   2634200.26824      -794.49224        24.50024
R06  19756094.54025-105554691.41725     -1928.02825        32.90025
R07  23059927.64426-123574402.38926       711.81126        37.80026
E31  27163929.30324   3029154.45524     -5882.01124        25.00024                                                                
C34  25076911.81523   3865727.00623     -1676.18923        22.50023                                                                
> 2024 12 29 08 49 34.9999999  0 26                      
G14  20232793.32907    200451.70607     -3954.81907        46.00007  20232803.52226    153495.73026     -2952.78626        39.60026
G30  21401393.62307    119200.57507     -4185.58307        47.10007  21401401.11806    -38899.41606     -3126.04006        40.10006
G05  22702219.48027    291941.38927     -4705.09227        42.00027                                                                
G22  20350620.15906   2976569.18406     -2907.53206        40.50006                                                                
G13  20922129.21107    261050.65507     -1150.70307        45.10007                                                                
G15  23324650.68017    385584.60817        78.00617        42.80017                                                                
G19  24126899.49506    382496.41106        21.68606        38.10006                                                                
G20  23388668.06215   4064594.72115     -5883.26215        32.80015                                                                
G17  22137829.00024    378677.84324      -812.45524        26.50024                                                                
G07  23502827.23124   3878817.71824     -5006.71724        26.30024                                                                
E24  23905272.22407    113374.36107     -4316.03907        46.00007  23905282.41726    141029.08826     -3221.93326        38.80026
E05  21805986.03007    388706.40307     -2982.20407        44.20007  21805998.32106    283226.63606     -2227.09506        36.20006
R16  19880170.84407-106332056.77307     -4268.37407        44.90007
E16  23291649.82607    176342.36507     -2968.61107        43.00007                                                                
E25  24161554.00417    647674.58617     -1782.21617        42.10017  24161568.09406   2574923.41706     -1330.56206        35.60006
R09  21696156.16417-115991968.83117     -1309.16017        41.80017
C10  38024489.09406    279055.08806     -2912.30806        41.40006                                                                
R15  22380569.45427-119730778.44627     -6377.26427        43.00027
E03  25820856.99306    330091.12806      -917.85406        38.20006  25820870.78325  -1832099.88625      -684.41025        33.70025
E09  25506857.07006   4475137.74206     -5340.23806        37.20006  25506873.85925   3349815.64225     -3987.71325        29.80025
R05  20677167.29526-110667156.97426     -6724.12526        36.40026
C37  26420653.56225    537823.34825     -1035.94125        33.40025  26420673.64824   2633415.73324      -781.34524        29.00024
R06  19755863.10115-105556681.14815     -1933.51315        32.80015
R07  23059168.27026-123573572.11126       706.51826        36.90026
E31  27164436.25224   3023270.84024     -5883.14124        25.00024                                                                
C34  25076629.41123   3864047.47823     -1681.14623        23.00023                                                                
> 2024 12 29 08 49 36.0000000  0 26                      
G14  20232937.52908    196494.98308     -3958.75908        48.20008  20232945.02426    150542.78326     -2953.78026        39.00026
G30  21401574.09907    115013.53007     -4188.92407        46.90007  21401586.69006    -42026.40106     -3128.32606        40.00006
G05  22702511.47827    287236.87327     -4705.67127        41.90027                                                                
G22  20350562.29906   2973659.32806     -2912.02706        40.80006                                                                
G13  20921727.48917    259899.23817     -1152.83917        44.30017                                                                
G15  23324026.81227    385663.07127        77.27827        41.90027                                                                
G19  24126278.92506    382516.49406        18.28706        37.80006                                                                
G17  22137387.10624    377863.07324      -817.50124        27.70024                                                                
G20  23389170.81416   4058709.21916     -5887.33016        36.10016                                                                
G07  23503157.90224   3873807.03224     -5013.63824        26.30024                                                                
E24  23905488.67507    109057.07007     -4319.17707        45.80007  23905493.17126    137805.18626     -3225.79626        39.00026
E05  21805937.16407    385722.08507     -2986.35407        44.10007  21805954.55215    280997.98915     -2230.20015        35.40015
E16  23291601.56007    173371.66107     -2972.75507        43.00007                                                                
E25  24161288.38807    645890.49807     -1786.20907        42.70007  24161297.68205   2573591.26105     -1333.65005        35.20005
R16  19880361.51217-106336339.28717     -4271.54917        44.60017
R09  21695787.71917-115993264.67817     -1312.44517        41.70017
C10  38024440.52806    276141.49706     -2915.44506        41.30006                                                                
R15  22381160.64517-119737202.55117     -6387.54917        42.30017
E03  25820406.40506    329171.96806      -920.81106        38.30006  25820437.58325  -1832786.35325      -688.27025        33.70025
E09  25507266.88706   4469795.49106     -5344.50306        37.50006  25507279.77825   3345825.23225     -3992.35525        30.70025
R05  20677803.75426-110673825.79226     -6737.91526        36.30026
C37  26420245.54525    536784.03025     -1041.76525        33.40025  26420259.63516   2632630.87516      -785.01816        38.90016
R06  19755622.66705-105558657.90305     -1938.15905        32.80005
R07  23058446.37026-123572979.27826       693.05826        36.10026
C34  25076349.70425   3862363.97025     -1685.49525        31.10025                                                                
E31  27164961.18924   3017381.49024     -5892.20324        24.90024                                                                
> 2024 12 29 08 49 37.0000000  0 26                      
G14  20233066.44008    192530.14708     -3968.13508        48.20008  20233077.53226    147582.39026     -2964.11026        38.90026
G30  21401753.07527    110818.68727     -4198.73427        46.70027  21401762.06806    -45158.81906     -3135.12806        40.10006
G05  22702790.58527    282523.24627     -4718.17227        41.80027                                                                
G22  20350496.94406   2970742.21106     -2921.49106        41.10006                                                                
G13  20921327.26727    258739.59927     -1163.74827        43.70027                                                                
G15  23323399.64626    385730.18526        61.44026        41.10026                                                                
G19  24125655.95606    382529.73206         9.81506        37.60006                                                                
G20  23389666.97026   4052816.85426     -5895.78426        36.10026                                                                
G17  22136914.33315    377043.86815      -821.42015        35.20015                                                                
G07  23503511.35824   3868787.73524     -5023.59224        26.30024                                                                
E24  23905682.04107    104732.55607     -4328.11707        45.60007  23905692.23416    134575.88016     -3232.00116        38.60016
E05  21805890.69607    382730.33507     -2995.46007        44.00007  21805902.08805    278763.91205     -2236.78605        35.30005
E25  24161008.08207    644098.93707     -1795.29507        43.10007  24161014.97705   2572253.42405     -1340.67505        35.10005
E16  23291545.49907    170393.44507     -2981.96507        43.00007                                                                
R16  19880535.99107-106340598.10607     -4281.34107        44.30007
R09  21695424.97007-115994652.20807     -1322.06907        41.60007
C10  38024380.86906    273220.64406     -2924.47806        41.10006                                                                
R15  22381726.65327-119743554.77927     -6395.59427        41.70027
E03  25819967.50826    328244.17326      -932.11126        38.30026  25819989.99325  -1833477.93825      -694.14125        32.80025
E09  25507664.41106   4464446.05906     -5353.01206        37.70006  25507675.50425   3341830.68025     -3996.61525        31.30025
R05  20678445.01026-110680581.79926     -6741.66426        36.10026
C34  25076047.81325   3860674.95325     -1691.76725        32.60025                                                                
R06  19755355.55205-105560555.25105     -1948.12905        33.10005
R07  23057691.19325-123572268.48825       692.06825        35.40025
E31  27165452.24924   3011482.98424     -5903.07324        24.90024                                                                
C37  26419819.24025    535737.10025     -1050.73325        33.30025  26419839.32606   2631840.32106      -793.40106        37.70006
> 2024 12 29 08 49 38.0000000  0 26                      
G14  20233197.14908    188561.70608     -3970.48508        48.20008  20233208.24126    144621.99526     -2960.39026        37.90026
G30  21401928.15317    106620.36917     -4200.04717        46.50017  21401938.34606    -48294.09606     -3136.70106        40.20006
G05  22703058.60017    277804.98717     -4720.56617        41.80017                                                                
G22  20350428.89106   2967820.25406     -2924.12106        41.10006                                                                
G13  20920932.44027    257575.68327     -1166.05327        43.10027                                                                
G19  24125025.49206    382539.41406         7.90406        37.50006                                                                
G15  23322768.28326    385794.04826        62.23826        40.40026                                                                
G20  23390175.11926   4046921.49126     -5896.85126        36.10026                                                                
G17  22136442.46025    376217.81925      -829.46825        35.10025                                                                
G07  23503840.23024   3863762.47324     -5028.23424        26.20024                                                                
E24  23905881.70207    100403.89107     -4330.73207        45.40007  23905893.99406    131343.37306     -3234.10106        38.10006
E25  24160720.58107    642303.09807     -1797.97307        43.40007  24160735.27115   2570912.25315     -1342.83515        34.90015
E05  21805837.03307    379734.30507     -2998.16407        43.90007  21805848.42525    276527.73925     -2237.21825        34.80025
E16  23291492.13607    167411.12907     -2984.36107        43.00007                                                                
R16  19880712.56907-106344868.38507     -4282.83107        44.00007
R09  21695037.33807-115995908.31807     -1324.10107        41.60007
C10  38024315.21406    270296.29706     -2926.08906        40.90006                                                                
E03  25819533.40916    327314.14316      -931.14516        38.40016  25819550.19725  -1834175.95225      -701.22825        32.80025
R15  22382297.45816-119749933.76716     -6395.35416        41.20016
E09  25508059.23806   4459092.81306     -5355.14306        37.90006  25508070.93025   3337833.45025     -3998.56125        31.30025
R05  20679088.96516-110687355.39816     -6742.06916        36.10016
C34  25075746.82215   3858981.96115     -1694.97615        35.30015                                                                
R06  19755094.13305-105562484.66505     -1951.23605        33.50005
C37  26419407.32525    534685.47225     -1053.97625        33.20025  26419418.41706   2631046.54206      -795.38906        37.00006
